名称（基本）,名称,緯度,経度,標高 (m),所在地,津波発生時,耐震性,対応している災害,対応していない災害,欲しいもの,足りているもの,困っていること,その他連絡事項,福祉,状況,避難所の種類,状況・避難所の種類（グループ分け用）,開設日時,閉鎖日時,避難者数,避難者数のカウント日時,出典,不明点,更新日時,編集者
大江小学校,（開設中）大江小学校,32.8019759,130.7257147,,熊本県 熊本市中央区 大江 3丁目5-31,,不明,（まだ入力されていません）,（まだ入力されていません）,（まだ入力されていません）,（まだ入力されていません）,（まだ入力されていません）,（まだ入力されていません）,,開設中,,開設中,,,,,http://www.city.kumamoto.jp/hpkiji/pub/detail.aspx?c_id=5&type=top&id=12495,,2016-04-30 03:09:30 +0900,藤田
白川中学校,（開設中）白川中学校,32.8012537,130.7254175,,熊本県 熊本市中央区 大江 3丁目,,不明,（まだ入力されていません）,（まだ入力されていません）,（まだ入力されていません）,（まだ入力されていません）,（まだ入力されていません）,（まだ入力されていません）,,開設中,,開設中,,,,,http://www.city.kumamoto.jp/hpkiji/pub/detail.aspx?c_id=5&type=top&id=12495,,2016-04-30 03:09:30 +0900,藤田
熊本学園大学,（開設中）熊本学園大学,32.8043007,130.7296201,,熊本県 熊本市中央区 大江 2丁目5-1,,不明,（まだ入力されていません）,（まだ入力されていません）,（まだ入力されていません）,（まだ入力されていません）,（まだ入力されていません）,（まだ入力されていません）,,開設中,,開設中,,,,,http://www.city.kumamoto.jp/hpkiji/pub/detail.aspx?c_id=5&type=top&id=12495,,2016-04-30 03:09:30 +0900,藤田
白川小学校,（開設中）白川小学校,32.8026773,130.7168472,,熊本県 熊本市中央区 新屋敷 1丁目7-13,,不明,（まだ入力されていません）,（まだ入力されていません）,（まだ入力されていません）,（まだ入力されていません）,（まだ入力されていません）,（まだ入力されていません）,,開設中,,開設中,,,,,http://www.city.kumamoto.jp/hpkiji/pub/detail.aspx?c_id=5&type=top&id=12495,,2016-04-30 03:09:30 +0900,藤田
熊本大学医学部（本荘体育館）,（開設中）熊本大学医学部（本荘体育館）,32.7926432,130.7144408,,熊本県 熊本市中央区 九品寺 4丁目24-1,,不明,（まだ入力されていません）,（まだ入力されていません）,（まだ入力されていません）,（まだ入力されていません）,（まだ入力されていません）,（まだ入力されていません）,,開設中,,開設中,,,,,http://www.city.kumamoto.jp/hpkiji/pub/detail.aspx?c_id=5&type=top&id=12495,,2016-04-30 03:09:30 +0900,藤田
城東小学校,（開設中）城東小学校,32.8083466,130.7093215,,熊本県 熊本市中央区 千葉城町 5-1,,不明,（まだ入力されていません）,（まだ入力されていません）,（まだ入力されていません）,（まだ入力されていません）,（まだ入力されていません）,（まだ入力されていません）,,開設中,,開設中,,,,,http://www.city.kumamoto.jp/hpkiji/pub/detail.aspx?c_id=5&type=top&id=12495,,2016-04-30 03:09:30 +0900,藤田
江南中学校,（開設中）江南中学校,32.7875932,130.6990479,,熊本県 熊本市中央区 本山町 75,,不明,（まだ入力されていません）,（まだ入力されていません）,（まだ入力されていません）,（まだ入力されていません）,（まだ入力されていません）,（まだ入力されていません）,,開設中,,開設中,,,,,http://www.city.kumamoto.jp/hpkiji/pub/detail.aspx?c_id=5&type=top&id=12495,,2016-04-30 03:09:30 +0900,藤田
本荘小学校,（開設中）本荘小学校,32.792668,130.7081942,,熊本県 熊本市中央区 本荘 6丁目5-47,,不明,（まだ入力されていません）,（まだ入力されていません）,（まだ入力されていません）,（まだ入力されていません）,（まだ入力されていません）,（まだ入力されていません）,,開設中,,開設中,,,,,http://www.city.kumamoto.jp/hpkiji/pub/detail.aspx?c_id=5&type=top&id=12495,,2016-04-30 03:09:30 +0900,藤田
大江出張所,（開設中）大江出張所,32.798865,130.725116,,熊本県 熊本市中央区 大江 6丁目1-85,,不明,（まだ入力されていません）,（まだ入力されていません）,（まだ入力されていません）,（まだ入力されていません）,（まだ入力されていません）,（まだ入力されていません）,,開設中,,開設中,,,,,http://www.city.kumamoto.jp/hpkiji/pub/detail.aspx?c_id=5&type=top&id=12495,,2016-04-30 03:09:30 +0900,藤田
黒髪小学校,（開設中）黒髪小学校,32.8147858,130.7201011,,熊本県 熊本市中央区 黒髪 2丁目2-1,,不明,（まだ入力されていません）,（まだ入力されていません）,（まだ入力されていません）,（まだ入力されていません）,（まだ入力されていません）,（まだ入力されていません）,,開設中,,開設中,,,,,http://www.city.kumamoto.jp/hpkiji/pub/detail.aspx?c_id=5&type=top&id=12495,,2016-04-30 03:09:30 +0900,藤田
桜山中学校,（開設中）桜山中学校,32.8163885,130.7318895,,熊本県 熊本市中央区 黒髪 5丁目13-1,,不明,（まだ入力されていません）,（まだ入力されていません）,（まだ入力されていません）,（まだ入力されていません）,（まだ入力されていません）,（まだ入力されていません）,,開設中,,開設中,,,,,http://www.city.kumamoto.jp/hpkiji/pub/detail.aspx?c_id=5&type=top&id=12495,,2016-04-30 03:09:30 +0900,藤田
竜南中学校,（開設中）竜南中学校,32.8178688,130.7150847,,熊本県 熊本市中央区 坪井 4丁目16-1,,不明,（まだ入力されていません）,（まだ入力されていません）,（まだ入力されていません）,（まだ入力されていません）,（まだ入力されていません）,（まだ入力されていません）,,開設中,,開設中,,,,,http://www.city.kumamoto.jp/hpkiji/pub/detail.aspx?c_id=5&type=top&id=12495,,2016-04-30 03:09:30 +0900,藤田
市立必由館高校,（開設中）市立必由館高校,32.8158605,130.71401,,熊本県 熊本市中央区 坪井 4丁目15-1,,不明,（まだ入力されていません）,（まだ入力されていません）,（まだ入力されていません）,（まだ入力されていません）,（まだ入力されていません）,（まだ入力されていません）,,開設中,,開設中,,,,,http://www.city.kumamoto.jp/hpkiji/pub/detail.aspx?c_id=5&type=top&id=12495,,2016-04-30 03:09:30 +0900,藤田
熊本大学（黒髪体育館）,（開設中）熊本大学（黒髪体育館）,32.815535,130.725179,,熊本県 熊本市中央区 黒髪 2丁目40,,不明,（まだ入力されていません）,（まだ入力されていません）,（まだ入力されていません）,（まだ入力されていません）,（まだ入力されていません）,（まだ入力されていません）,,開設中,,開設中,,,,,http://www.city.kumamoto.jp/hpkiji/pub/detail.aspx?c_id=5&type=top&id=12495,,2016-04-30 03:09:30 +0900,藤田
済々黌高校,（開設中）済々黌高校,32.8177134,130.7230787,,熊本県 熊本市中央区 黒髪 2丁目22-1,,不明,（まだ入力されていません）,（まだ入力されていません）,（まだ入力されていません）,（まだ入力されていません）,（まだ入力されていません）,（まだ入力されていません）,,開設中,,開設中,,,,,http://www.city.kumamoto.jp/hpkiji/pub/detail.aspx?c_id=5&type=top&id=12495,,2016-04-30 03:09:30 +0900,藤田
碩台小学校,（開設中）碩台小学校,32.8091196,130.7184568,,熊本県 熊本市中央区 井川淵町 4-8,,不明,（まだ入力されていません）,（まだ入力されていません）,（まだ入力されていません）,（まだ入力されていません）,（まだ入力されていません）,（まだ入力されていません）,,開設中,,開設中,,,,,http://www.city.kumamoto.jp/hpkiji/pub/detail.aspx?c_id=5&type=top&id=12495,,2016-04-30 03:09:30 +0900,藤田
壷川小学校,（開設中）壷川小学校,32.8131482,130.7096384,,熊本県 熊本市中央区 壺川 1丁目4-5,,不明,（まだ入力されていません）,（まだ入力されていません）,（まだ入力されていません）,（まだ入力されていません）,（まだ入力されていません）,（まだ入力されていません）,,開設中,,開設中,,,,,http://www.city.kumamoto.jp/hpkiji/pub/detail.aspx?c_id=5&type=top&id=12495,,2016-04-30 03:09:30 +0900,藤田
京稜中学校,（開設中）京稜中学校,32.8172684,130.7046886,,熊本県 熊本市中央区 京町本丁 1-14,,不明,（まだ入力されていません）,（まだ入力されていません）,（まだ入力されていません）,（まだ入力されていません）,（まだ入力されていません）,（まだ入力されていません）,,開設中,,開設中,,,,,http://www.city.kumamoto.jp/hpkiji/pub/detail.aspx?c_id=5&type=top&id=12495,,2016-04-30 03:09:30 +0900,藤田
一新小学校,（開設中）一新小学校,32.8024389,130.6951256,,熊本県 熊本市中央区 新町 3丁目10-45,,不明,（まだ入力されていません）,（まだ入力されていません）,（まだ入力されていません）,（まだ入力されていません）,（まだ入力されていません）,（まだ入力されていません）,,開設中,,開設中,,,,,http://www.city.kumamoto.jp/hpkiji/pub/detail.aspx?c_id=5&type=top&id=12495,,2016-04-30 03:09:30 +0900,藤田
西山中学校,（開設中）西山中学校,32.8035193,130.6927536,,熊本県 熊本市中央区 島崎 1丁目27-1,,不明,（まだ入力されていません）,（まだ入力されていません）,（まだ入力されていません）,（まだ入力されていません）,（まだ入力されていません）,（まだ入力されていません）,,開設中,,開設中,,,,,http://www.city.kumamoto.jp/hpkiji/pub/detail.aspx?c_id=5&type=top&id=12495,,2016-04-30 03:09:30 +0900,藤田
五福小学校,（開設中）五福小学校,32.795809,130.6956674,,熊本県 熊本市中央区 細工町 2-25,,不明,（まだ入力されていません）,（まだ入力されていません）,（まだ入力されていません）,（まだ入力されていません）,（まだ入力されていません）,（まだ入力されていません）,,開設中,,開設中,,,,,http://www.city.kumamoto.jp/hpkiji/pub/detail.aspx?c_id=5&type=top&id=12495,,2016-04-30 03:09:30 +0900,藤田
慶徳小学校,（開設中）慶徳小学校,32.7970507,130.7016891,,熊本県 熊本市中央区 山崎町 72,,不明,（まだ入力されていません）,（まだ入力されていません）,（まだ入力されていません）,（まだ入力されていません）,（まだ入力されていません）,（まだ入力されていません）,,開設中,,開設中,,,,,http://www.city.kumamoto.jp/hpkiji/pub/detail.aspx?c_id=5&type=top&id=12495,,2016-04-30 03:09:30 +0900,藤田
春竹小学校,（開設中）春竹小学校,32.7882322,130.7073805,,熊本県 熊本市中央区 琴平 1丁目9-43,,不明,（まだ入力されていません）,（まだ入力されていません）,（まだ入力されていません）,（まだ入力されていません）,（まだ入力されていません）,（まだ入力されていません）,,開設中,,開設中,,,,,http://www.city.kumamoto.jp/hpkiji/pub/detail.aspx?c_id=5&type=top&id=12495,,2016-04-30 03:09:30 +0900,藤田
江原中学校,（開設中）江原中学校,32.7841893,130.7053404,,熊本県 熊本市中央区 琴平 2丁目9-59,,不明,（まだ入力されていません）,（まだ入力されていません）,（まだ入力されていません）,（まだ入力されていません）,（まだ入力されていません）,（まだ入力されていません）,,開設中,,開設中,,,,,http://www.city.kumamoto.jp/hpkiji/pub/detail.aspx?c_id=5&type=top&id=12495,,2016-04-30 03:09:30 +0900,藤田
熊本市総合体育館・青年会館,（開設中）熊本市総合体育館・青年会館,32.7851171,130.7366073,,熊本県 熊本市中央区 出水 2-7-1,,不明,（まだ入力されていません）,（まだ入力されていません）,（まだ入力されていません）,（まだ入力されていません）,（まだ入力されていません）,（まだ入力されていません）,,開設中,,開設中,,,,,http://www.city.kumamoto.jp/hpkiji/pub/detail.aspx?c_id=5&type=top&id=12495,,2016-04-30 03:09:30 +0900,藤田
熊本商業高校,（開設中）熊本商業高校,32.786556,130.740217,,熊本県 熊本市中央区 神水 1丁目1-2,,不明,（まだ入力されていません）,（まだ入力されていません）,（まだ入力されていません）,（まだ入力されていません）,（まだ入力されていません）,（まだ入力されていません）,,開設中,,開設中,,,,,http://www.city.kumamoto.jp/hpkiji/pub/detail.aspx?c_id=5&type=top&id=12495,,2016-04-30 03:09:30 +0900,藤田
砂取小学校,（開設中）砂取小学校,32.7872406,130.7387848,,熊本県 熊本市中央区 神水 1丁目1-1,,不明,（まだ入力されていません）,（まだ入力されていません）,（まだ入力されていません）,（まだ入力されていません）,（まだ入力されていません）,（まだ入力されていません）,,開設中,,開設中,,,,,http://www.city.kumamoto.jp/hpkiji/pub/detail.aspx?c_id=5&type=top&id=12495,,2016-04-30 03:09:30 +0900,藤田
熊本工業高校,（開設中）熊本工業高校,32.7924041,130.7474546,,熊本県 熊本市中央区 上京塚町 5-1,,不明,（まだ入力されていません）,（まだ入力されていません）,（まだ入力されていません）,（まだ入力されていません）,（まだ入力されていません）,（まだ入力されていません）,,開設中,,開設中,,,,,http://www.city.kumamoto.jp/hpkiji/pub/detail.aspx?c_id=5&type=top&id=12495,,2016-04-30 03:09:30 +0900,藤田
帯山小学校,（開設中）帯山小学校,32.8019304,130.7498693,,熊本県 熊本市中央区 帯山 4丁目11-11,,不明,（まだ入力されていません）,（まだ入力されていません）,（まだ入力されていません）,（まだ入力されていません）,（まだ入力されていません）,（まだ入力されていません）,,開設中,,開設中,,,,,http://www.city.kumamoto.jp/hpkiji/pub/detail.aspx?c_id=5&type=top&id=12495,,2016-04-30 03:09:30 +0900,藤田
帯山西小学校,（開設中）帯山西小学校,32.802162,130.741142,,熊本県 熊本市中央区 帯山 1丁目29-8,,不明,（まだ入力されていません）,（まだ入力されていません）,（まだ入力されていません）,（まだ入力されていません）,（まだ入力されていません）,（まだ入力されていません）,,開設中,,開設中,,,,,http://www.city.kumamoto.jp/hpkiji/pub/detail.aspx?c_id=5&type=top&id=12495,,2016-04-30 03:09:30 +0900,藤田
帯山中学校,（開設中）帯山中学校,32.8012426,130.7449197,,熊本県 熊本市中央区 帯山 1丁目35-32,,不明,（まだ入力されていません）,（まだ入力されていません）,（まだ入力されていません）,（まだ入力されていません）,（まだ入力されていません）,（まだ入力されていません）,,開設中,,開設中,,,,,http://www.city.kumamoto.jp/hpkiji/pub/detail.aspx?c_id=5&type=top&id=12495,,2016-04-30 03:09:30 +0900,藤田
託麻原小学校,（開設中）託麻原小学校,32.80389,130.7359738,,熊本県 熊本市中央区 渡鹿 2丁目3-1,,不明,（まだ入力されていません）,（まだ入力されていません）,（まだ入力されていません）,（まだ入力されていません）,（まだ入力されていません）,（まだ入力されていません）,,開設中,,開設中,,,,,http://www.city.kumamoto.jp/hpkiji/pub/detail.aspx?c_id=5&type=top&id=12495,,2016-04-30 03:09:30 +0900,藤田
白山小学校,（開設中）白山小学校,32.7900074,130.719646,,熊本県 熊本市中央区 菅原町 9-1,,不明,（まだ入力されていません）,（まだ入力されていません）,（まだ入力されていません）,（まだ入力されていません）,（まだ入力されていません）,（まだ入力されていません）,,開設中,,開設中,,,,,http://www.city.kumamoto.jp/hpkiji/pub/detail.aspx?c_id=5&type=top&id=12495,,2016-04-30 03:09:30 +0900,藤田
出水小学校,（開設中）出水小学校,32.7890187,130.7312026,,熊本県 熊本市中央区 出水 1丁目1-75,,不明,（まだ入力されていません）,（まだ入力されていません）,（まだ入力されていません）,（まだ入力されていません）,（まだ入力されていません）,（まだ入力されていません）,,開設中,,開設中,,,,,http://www.city.kumamoto.jp/hpkiji/pub/detail.aspx?c_id=5&type=top&id=12495,,2016-04-30 03:09:30 +0900,藤田
出水南小学校,（開設中）出水南小学校,32.7832831,130.7306511,,熊本県 熊本市中央区 出水 4丁目1-1,,不明,（まだ入力されていません）,（まだ入力されていません）,（まだ入力されていません）,（まだ入力されていません）,（まだ入力されていません）,（まだ入力されていません）,,開設中,,開設中,,,,,http://www.city.kumamoto.jp/hpkiji/pub/detail.aspx?c_id=5&type=top&id=12495,,2016-04-30 03:09:30 +0900,藤田
出水中学校,（開設中）出水中学校,32.7832776,130.7265569,,熊本県 熊本市中央区 出水 5丁目3-1,,不明,（まだ入力されていません）,（まだ入力されていません）,（まだ入力されていません）,（まだ入力されていません）,（まだ入力されていません）,（まだ入力されていません）,,開設中,,開設中,,,,,http://www.city.kumamoto.jp/hpkiji/pub/detail.aspx?c_id=5&type=top&id=12495,,2016-04-30 03:09:30 +0900,藤田
出水南中学校,（開設中）出水南中学校,32.7750311,130.7278403,,熊本県 熊本市中央区 出水 7丁目86-1,,不明,（まだ入力されていません）,（まだ入力されていません）,（まだ入力されていません）,（まだ入力されていません）,（まだ入力されていません）,（まだ入力されていません）,,開設中,,開設中,,,,,http://www.city.kumamoto.jp/hpkiji/pub/detail.aspx?c_id=5&type=top&id=12495,,2016-04-30 03:09:30 +0900,藤田
熊本大学（大江総合運動場渡鹿体育館）,（開設中）熊本大学（大江総合運動場渡鹿体育館）,32.807938,130.728866,,熊本県 熊本市中央区 渡鹿 4丁目1-1,,不明,（まだ入力されていません）,（まだ入力されていません）,（まだ入力されていません）,（まだ入力されていません）,（まだ入力されていません）,（まだ入力されていません）,,開設中,,開設中,,,,,http://www.city.kumamoto.jp/hpkiji/pub/detail.aspx?c_id=5&type=top&id=12495,,2016-04-30 03:09:30 +0900,藤田
湧心館高校,（開設中）湧心館高校,32.7807167,130.7304012,,熊本県 熊本市中央区 出水 4丁目1-2,,不明,（まだ入力されていません）,（まだ入力されていません）,（まだ入力されていません）,（まだ入力されていません）,（まだ入力されていません）,（まだ入力されていません）,,開設中,,開設中,,,,,http://www.city.kumamoto.jp/hpkiji/pub/detail.aspx?c_id=5&type=top&id=12495,,2016-04-30 03:09:30 +0900,藤田
熊本国府高等学校,（開設中）熊本国府高等学校,32.787513,130.728331,,熊本県 熊本市中央区 国府 2丁目 15-1,,不明,（まだ入力されていません）,（まだ入力されていません）,（まだ入力されていません）,（まだ入力されていません）,（まだ入力されていません）,（まだ入力されていません）,,開設中,,開設中,,,,,http://www.city.kumamoto.jp/hpkiji/pub/detail.aspx?c_id=5&type=top&id=12495,,2016-04-30 03:09:30 +0900,藤田
水前寺競技場,（開設中）水前寺競技場,32.7944004,130.7393193,,熊本県 熊本市中央区 水前寺 5-23-2,,不明,（まだ入力されていません）,（まだ入力されていません）,（まだ入力されていません）,（まだ入力されていません）,（まだ入力されていません）,（まだ入力されていません）,,開設中,,開設中,,,,,http://www.city.kumamoto.jp/hpkiji/pub/detail.aspx?c_id=5&type=top&id=12495,,2016-04-30 03:09:30 +0900,藤田
渡鹿公園,（開設中）渡鹿公園,32.8063783,130.7326339,,熊本県 熊本市中央区 渡鹿 1丁目15,,不明,（まだ入力されていません）,（まだ入力されていません）,（まだ入力されていません）,（まだ入力されていません）,（まだ入力されていません）,（まだ入力されていません）,,開設中,,開設中,,,,,http://www.city.kumamoto.jp/hpkiji/pub/detail.aspx?c_id=5&type=top&id=12495,,2016-04-30 03:09:30 +0900,藤田
ふれあい文化センター,（開設中）ふれあい文化センター,32.7923936,130.7113812,,熊本県 熊本市中央区 本荘 4丁目6-6,,不明,（まだ入力されていません）,（まだ入力されていません）,（まだ入力されていません）,（まだ入力されていません）,（まだ入力されていません）,（まだ入力されていません）,,開設中,,開設中,,,,,http://www.city.kumamoto.jp/hpkiji/pub/detail.aspx?c_id=5&type=top&id=12495,,2016-04-30 03:09:30 +0900,藤田
熊本市国際交流会館,（開設中）熊本市国際交流会館,32.8020087,130.7050433,,熊本県 熊本市中央区 花畑町 4-18,,不明,（まだ入力されていません）,（まだ入力されていません）,（まだ入力されていません）,（まだ入力されていません）,（まだ入力されていません）,（まだ入力されていません）,,開設中,,開設中,,,,,http://www.city.kumamoto.jp/hpkiji/pub/detail.aspx?c_id=5&type=top&id=12495,,2016-04-30 03:09:30 +0900,藤田
五福公民館,（開設中）五福公民館,32.795809,130.6956674,,熊本県 熊本市中央区 細工町 2丁目25,,不明,（まだ入力されていません）,（まだ入力されていません）,（まだ入力されていません）,（まだ入力されていません）,（まだ入力されていません）,（まだ入力されていません）,,開設中,,開設中,,,,,http://www.city.kumamoto.jp/hpkiji/pub/detail.aspx?c_id=5&type=top&id=12495,,2016-04-30 03:09:30 +0900,藤田
市役所1階ロビー,（開設中）市役所1階ロビー,32.8031004,130.7078578,,熊本県 熊本市中央区 手取本町 1-1,,不明,（まだ入力されていません）,（まだ入力されていません）,（まだ入力されていません）,（まだ入力されていません）,（まだ入力されていません）,（まだ入力されていません）,,開設中,,開設中,,,,,http://www.city.kumamoto.jp/hpkiji/pub/detail.aspx?c_id=5&type=top&id=12495,,2016-04-30 03:09:30 +0900,藤田
世安公民館,（開設中）世安公民館,32.795809,130.6956674,,熊本県 熊本市中央区 細工町 2丁目25,,不明,（まだ入力されていません）,（まだ入力されていません）,（まだ入力されていません）,（まだ入力されていません）,（まだ入力されていません）,出典には「世安町公民館」と記載,,開設中,,開設中,,,,,http://www.city.kumamoto.jp/hpkiji/pub/detail.aspx?c_id=5&type=top&id=12495,,2016-04-30 03:09:30 +0900,藤田
白山二丁目公園,（開設中）白山二丁目公園,32.792997,130.724016,,熊本県 熊本市中央区 白山 2丁目8,,不明,（まだ入力されていません）,（まだ入力されていません）,（まだ入力されていません）,（まだ入力されていません）,（まだ入力されていません）,出典には「白山公園」と記載,,開設中,,開設中,,,,,http://www.city.kumamoto.jp/hpkiji/pub/detail.aspx?c_id=5&type=top&id=12495,,2016-04-30 03:09:30 +0900,藤田
熊本競輪場駐車場,（開設中）熊本競輪場駐車場,32.795959,130.740152,,熊本県 熊本市中央区 水前寺 5丁目23-1,,不明,（まだ入力されていません）,（まだ入力されていません）,（まだ入力されていません）,（まだ入力されていません）,（まだ入力されていません）,（まだ入力されていません）,,開設中,,開設中,,,,,http://www.city.kumamoto.jp/hpkiji/pub/detail.aspx?c_id=5&type=top&id=12495,,2016-04-30 03:09:30 +0900,藤田
信愛女学院高等学校,（開設中）信愛女学院高等学校,32.808299,130.711131,,熊本県 熊本市中央区 上林町 3-18,,不明,（まだ入力されていません）,（まだ入力されていません）,（まだ入力されていません）,（まだ入力されていません）,（まだ入力されていません）,（まだ入力されていません）,,開設中,,開設中,,,,,http://www.city.kumamoto.jp/hpkiji/pub/detail.aspx?c_id=5&type=top&id=12495,,2016-04-30 03:09:30 +0900,藤田
慶誠高等学校,（開設中）慶誠高等学校,32.79955,130.720934,,熊本県 熊本市中央区 大江 4丁目9-58,,不明,（まだ入力されていません）,（まだ入力されていません）,（まだ入力されていません）,（まだ入力されていません）,（まだ入力されていません）,（まだ入力されていません）,,開設中,,開設中,,,,,http://www.city.kumamoto.jp/hpkiji/pub/detail.aspx?c_id=5&type=top&id=12495,,2016-04-30 03:09:30 +0900,藤田
ルーテル学院高等学校,（開設中）ルーテル学院高等学校,32.819146,130.722596,,熊本県 熊本市中央区 黒髪 3丁目12-16,,不明,（まだ入力されていません）,（まだ入力されていません）,（まだ入力されていません）,（まだ入力されていません）,（まだ入力されていません）,（まだ入力されていません）,,開設中,,開設中,,,,,http://www.city.kumamoto.jp/hpkiji/pub/detail.aspx?c_id=5&type=top&id=12495,,2016-04-30 03:09:30 +0900,藤田
堂免公園,（開設中）堂免公園,32.8020731,130.721851,,熊本県 熊本市中央区 大江 4丁目14-1,,不明,（まだ入力されていません）,（まだ入力されていません）,（まだ入力されていません）,（まだ入力されていません）,（まだ入力されていません）,（まだ入力されていません）,,開設中,,開設中,,,,,http://www.city.kumamoto.jp/hpkiji/pub/detail.aspx?c_id=5&type=top&id=12495,,2016-04-30 03:09:30 +0900,藤田
井手の口公園,（開設中）井手の口公園,32.799425,130.716423,,熊本県 熊本市中央区 九品寺 1丁目5,,不明,（まだ入力されていません）,（まだ入力されていません）,（まだ入力されていません）,（まだ入力されていません）,（まだ入力されていません）,（まだ入力されていません）,,開設中,,開設中,,,,,http://www.city.kumamoto.jp/hpkiji/pub/detail.aspx?c_id=5&type=top&id=12495,,2016-04-30 03:09:30 +0900,藤田
白川老人憩の家,（開設中）白川老人憩の家,32.7994954,130.7161099,,熊本県 熊本市中央区 九品寺 1丁目5-12,,不明,（まだ入力されていません）,（まだ入力されていません）,（まだ入力されていません）,（まだ入力されていません）,（まだ入力されていません）,（まだ入力されていません）,,開設中,,開設中,,,,,http://www.city.kumamoto.jp/hpkiji/pub/detail.aspx?c_id=5&type=top&id=12495,,2016-04-30 03:09:30 +0900,藤田
琴平団地集会場,（開設中）琴平団地集会場,32.788239,130.703737,,熊本県 熊本市中央区 琴平本町 4,,不明,（まだ入力されていません）,（まだ入力されていません）,（まだ入力されていません）,（まだ入力されていません）,（まだ入力されていません）,（まだ入力されていません）,,開設中,,開設中,,,,,http://www.city.kumamoto.jp/hpkiji/pub/detail.aspx?c_id=5&type=top&id=12495,,2016-04-30 03:09:30 +0900,藤田
中央消防署（防災センター）,（開設中）中央消防署（防災センター）,32.803933,130.721338,,熊本県 熊本市中央区 大江 3丁目1,,不明,（まだ入力されていません）,（まだ入力されていません）,（まだ入力されていません）,（まだ入力されていません）,（まだ入力されていません）,（まだ入力されていません）,,開設中,,開設中,,,,,http://www.city.kumamoto.jp/hpkiji/pub/detail.aspx?c_id=5&type=top&id=12495,,2016-04-30 03:09:30 +0900,藤田
八王子団地,（開設中）八王子団地,32.779913,130.713436,,"熊本県 熊本市中央区 八王子町 19, 20, 23, 24",,不明,（まだ入力されていません）,（まだ入力されていません）,（まだ入力されていません）,（まだ入力されていません）,（まだ入力されていません）,（まだ入力されていません）,,開設中,,開設中,,,,,http://www.city.kumamoto.jp/hpkiji/pub/detail.aspx?c_id=5&type=top&id=12495,,2016-04-30 03:09:30 +0900,藤田
県営保田窪団地,（閉鎖）県営保田窪団地,32.801197,130.741653,,熊本県 熊本市中央区 帯山1-28,,不明,（まだ入力されていません）,（まだ入力されていません）,（まだ入力されていません）,（まだ入力されていません）,（まだ入力されていません）,（まだ入力されていません）,,閉鎖,,閉鎖,,,,,http://www.city.kumamoto.jp/hpkiji/pub/detail.aspx?c_id=5&type=top&id=12495,,2016-04-30 03:09:30 +0900,藤田
熊本大学,（閉鎖）熊本大学,32.811775,130.7279757,,熊本県 熊本市中央区 黒髪 2-39-2,,不明,（まだ入力されていません）,（まだ入力されていません）,（まだ入力されていません）,（まだ入力されていません）,（まだ入力されていません）,（まだ入力されていません）,,閉鎖,,閉鎖,,,,,http://www.city.kumamoto.jp/hpkiji/pub/detail.aspx?c_id=5&type=top&id=12495,,2016-04-30 03:09:30 +0900,藤田
大江公民館,（閉鎖）大江公民館,32.7988605,130.7250847,,熊本県 熊本市中央区 大江 6丁目1-85,,不明,（まだ入力されていません）,（まだ入力されていません）,（まだ入力されていません）,（まだ入力されていません）,（まだ入力されていません）,（まだ入力されていません）,,閉鎖,,閉鎖,,,,,http://www.city.kumamoto.jp/hpkiji/pub/detail.aspx?c_id=5&type=top&id=12495,,2016-04-30 03:09:30 +0900,藤田
白川公園,（閉鎖）白川公園,32.8045594,130.7154213,,熊本県 熊本市中央区 草葉町 5-1,,不明,（まだ入力されていません）,（まだ入力されていません）,（まだ入力されていません）,（まだ入力されていません）,（まだ入力されていません）,（まだ入力されていません）,,閉鎖,,閉鎖,,,,,http://www.city.kumamoto.jp/hpkiji/pub/detail.aspx?c_id=5&type=top&id=12495,,2016-04-30 03:09:30 +0900,藤田
熊本高校,（閉鎖）熊本高校,32.7998983,130.7290202,,熊本県 熊本市中央区 新大江 1丁目8,,不明,（まだ入力されていません）,（まだ入力されていません）,（まだ入力されていません）,（まだ入力されていません）,（まだ入力されていません）,（まだ入力されていません）,,閉鎖,,閉鎖,,,,,http://www.city.kumamoto.jp/hpkiji/pub/detail.aspx?c_id=5&type=top&id=12495,,2016-04-30 03:09:30 +0900,藤田
西岸寺公園,（閉鎖）西岸寺公園,32.7980147,130.7079301,,熊本県 熊本市中央区 下通 2丁目,,不明,（まだ入力されていません）,（まだ入力されていません）,（まだ入力されていません）,（まだ入力されていません）,（まだ入力されていません）,（まだ入力されていません）,,閉鎖,,閉鎖,,,,,http://www.city.kumamoto.jp/hpkiji/pub/detail.aspx?c_id=5&type=top&id=12495,,2016-04-30 03:09:30 +0900,藤田
藤園中学校,（閉鎖）藤園中学校,32.8087077,130.7082124,,熊本県 熊本市中央区 千葉城町 5-2,,不明,（まだ入力されていません）,（まだ入力されていません）,（まだ入力されていません）,（まだ入力されていません）,（まだ入力されていません）,（まだ入力されていません）,,閉鎖,,閉鎖,,,,,http://www.city.kumamoto.jp/hpkiji/pub/detail.aspx?c_id=5&type=top&id=12495,,2016-04-30 03:09:30 +0900,藤田
九州学院,（閉鎖）九州学院,32.7990567,130.7219955,,熊本県 熊本市中央区 大江 5丁目2-1,,不明,（まだ入力されていません）,（まだ入力されていません）,（まだ入力されていません）,（まだ入力されていません）,（まだ入力されていません）,（まだ入力されていません）,,閉鎖,,閉鎖,,,,,http://www.city.kumamoto.jp/hpkiji/pub/detail.aspx?c_id=5&type=top&id=12495,,2016-04-30 03:09:30 +0900,藤田
西消防署,（閉鎖）西消防署,32.7960063,130.6982116,,熊本県 熊本市中央区 米屋町 1丁目12,,不明,（まだ入力されていません）,（まだ入力されていません）,（まだ入力されていません）,（まだ入力されていません）,（まだ入力されていません）,（まだ入力されていません）,,閉鎖,,閉鎖,,,,,http://www.city.kumamoto.jp/hpkiji/pub/detail.aspx?c_id=5&type=top&id=12495,,2016-04-30 03:09:30 +0900,藤田
開新高校,（閉鎖）開新高校,32.7996567,130.7267009,,熊本県 熊本市中央区 大江 6丁目1-33,,不明,（まだ入力されていません）,（まだ入力されていません）,（まだ入力されていません）,（まだ入力されていません）,（まだ入力されていません）,（まだ入力されていません）,,閉鎖,,閉鎖,,,,,http://www.city.kumamoto.jp/hpkiji/pub/detail.aspx?c_id=5&type=top&id=12495,,2016-04-30 03:09:30 +0900,藤田
出水南コミュニティセンター,（閉鎖）出水南コミュニティセンター,32.778123,130.7226096,,熊本県 熊本市中央区 出水 7丁目30-30,,不明,（まだ入力されていません）,（まだ入力されていません）,（まだ入力されていません）,（まだ入力されていません）,（まだ入力されていません）,（まだ入力されていません）,,閉鎖,,閉鎖,,,,,http://www.city.kumamoto.jp/hpkiji/pub/detail.aspx?c_id=5&type=top&id=12495,,2016-04-30 03:09:30 +0900,藤田
碩台コミュニティセンター,（閉鎖）碩台コミュニティセンター,32.8100568,130.7162135,,熊本県 熊本市中央区 北千反畑町 5-18,,不明,（まだ入力されていません）,（まだ入力されていません）,（まだ入力されていません）,（まだ入力されていません）,（まだ入力されていません）,（まだ入力されていません）,,閉鎖,,閉鎖,,,,,http://www.city.kumamoto.jp/hpkiji/pub/detail.aspx?c_id=5&type=top&id=12495,,2016-04-30 03:09:30 +0900,藤田
砂取コミュニティセンター,（閉鎖）砂取コミュニティセンター,32.7832748,130.7363453,,熊本県 熊本市中央区 神水本町 6-29,,不明,（まだ入力されていません）,（まだ入力されていません）,（まだ入力されていません）,（まだ入力されていません）,（まだ入力されていません）,（まだ入力されていません）,,閉鎖,,閉鎖,,,,,http://www.city.kumamoto.jp/hpkiji/pub/detail.aspx?c_id=5&type=top&id=12495,,2016-04-30 03:09:30 +0900,藤田
県教育会館,（閉鎖）県教育会館,32.798124,130.7150054,,熊本県 熊本市中央区 九品寺 1丁目11-4,,不明,（まだ入力されていません）,（まだ入力されていません）,（まだ入力されていません）,（まだ入力されていません）,（まだ入力されていません）,（まだ入力されていません）,,閉鎖,,閉鎖,,,,,http://www.city.kumamoto.jp/hpkiji/pub/detail.aspx?c_id=5&type=top&id=12495,,2016-04-30 03:09:30 +0900,藤田
亀継公園,（閉鎖）亀継公園,32.7815471,130.7184519,,熊本県 熊本市中央区 出水 6丁目6,,不明,（まだ入力されていません）,（まだ入力されていません）,（まだ入力されていません）,（まだ入力されていません）,（まだ入力されていません）,（まだ入力されていません）,,閉鎖,,閉鎖,,,,,http://www.city.kumamoto.jp/hpkiji/pub/detail.aspx?c_id=5&type=top&id=12495,,2016-04-30 03:09:30 +0900,藤田
二の丸公園,（閉鎖）二の丸公園,32.8054333,130.7024444,,熊本県 熊本市中央区 二の丸 2-3,,不明,（まだ入力されていません）,（まだ入力されていません）,（まだ入力されていません）,（まだ入力されていません）,（まだ入力されていません）,（まだ入力されていません）,,閉鎖,,閉鎖,,,,,http://www.city.kumamoto.jp/hpkiji/pub/detail.aspx?c_id=5&type=top&id=12495,,2016-04-30 03:09:30 +0900,藤田
向山小学校,（閉鎖）向山小学校,32.789431,130.700005,,熊本県 熊本市中央区 本山 4丁目5−11,,不明,（まだ入力されていません）,（まだ入力されていません）,（まだ入力されていません）,（まだ入力されていません）,（まだ入力されていません）,（まだ入力されていません）,,閉鎖,,閉鎖,,,,,http://www.city.kumamoto.jp/hpkiji/pub/detail.aspx?c_id=5&type=top&id=12495,,2016-04-30 03:09:30 +0900,藤田
国立熊本大学教育学部附属小学校・中学校,（閉鎖）国立熊本大学教育学部附属小学校・中学校,32.817967,130.7037,,熊本県 熊本市中央区 京町本丁 5-12,,不明,（まだ入力されていません）,（まだ入力されていません）,（まだ入力されていません）,（まだ入力されていません）,（まだ入力されていません）,（まだ入力されていません）,,閉鎖,,閉鎖,,,,,http://www.city.kumamoto.jp/hpkiji/pub/detail.aspx?c_id=5&type=top&id=12495,,2016-04-30 03:09:30 +0900,藤田
熊本大学薬学部,（閉鎖）熊本大学薬学部,32.7945098,130.7208624,,熊本県 熊本市中央区 大江本町 5-1,,不明,（まだ入力されていません）,（まだ入力されていません）,（まだ入力されていません）,（まだ入力されていません）,（まだ入力されていません）,（まだ入力されていません）,,閉鎖,,閉鎖,,,,,http://www.city.kumamoto.jp/hpkiji/pub/detail.aspx?c_id=5&type=top&id=12495,,2016-04-30 03:09:30 +0900,藤田
西出門,（閉鎖）西出門＜詳細位置不明＞,,,,熊本県 熊本市中央区,,不明,（まだ入力されていません）,（まだ入力されていません）,（まだ入力されていません）,（まだ入力されていません）,（まだ入力されていません）,（まだ入力されていません）,,閉鎖,,閉鎖,,,,,http://www.city.kumamoto.jp/hpkiji/pub/detail.aspx?c_id=5&type=top&id=12495,詳細位置不明,2016-04-30 03:09:30 +0900,藤田
世安公設団地,（閉鎖）世安公設団地,32.782672,130.700714,,熊本県 熊本市中央区 世安町 52-1,,不明,（まだ入力されていません）,（まだ入力されていません）,（まだ入力されていません）,（まだ入力されていません）,（まだ入力されていません）, 「市営世安団地」と思われるので、その位置にマッピング,,閉鎖,,閉鎖,,,,,http://www.city.kumamoto.jp/hpkiji/pub/detail.aspx?c_id=5&type=top&id=12495,,2016-04-30 03:09:30 +0900,藤田
八王子公民館,（閉鎖）八王子公民館＜詳細位置不明＞,,,,熊本県 熊本市中央区,,不明,（まだ入力されていません）,（まだ入力されていません）,（まだ入力されていません）,（まだ入力されていません）,（まだ入力されていません）,（まだ入力されていません）,,閉鎖,,閉鎖,,,,,http://www.city.kumamoto.jp/hpkiji/pub/detail.aspx?c_id=5&type=top&id=12495,詳細位置不明,2016-04-30 03:09:30 +0900,藤田
秋津出張所,（開設中）秋津出張所,32.7712018,130.773298,,熊本県 熊本市東区 秋津 3丁目15-1,,不明,（まだ入力されていません）,（まだ入力されていません）,（まだ入力されていません）,（まだ入力されていません）,（まだ入力されていません）,（まだ入力されていません）,,開設中,,開設中,,,,,http://www.city.kumamoto.jp/hpkiji/pub/detail.aspx?c_id=5&type=top&id=12495,,2016-04-30 03:09:30 +0900,藤田
秋津小学校,（開設中）秋津小学校,32.7726147,130.7719461,,熊本県 熊本市東区 秋津 3丁目9-20,,不明,（まだ入力されていません）,（まだ入力されていません）,（まだ入力されていません）,（まだ入力されていません）,（まだ入力されていません）,（まだ入力されていません）,,開設中,,開設中,,,,,http://www.city.kumamoto.jp/hpkiji/pub/detail.aspx?c_id=5&type=top&id=12495,,2016-04-30 03:09:30 +0900,藤田
東野中学校,（開設中）東野中学校,32.7747117,130.7677797,,熊本県 熊本市東区 東野 3丁目6-50,,不明,（まだ入力されていません）,（まだ入力されていません）,（まだ入力されていません）,（まだ入力されていません）,（まだ入力されていません）,（まだ入力されていません）,,開設中,,開設中,,,,,http://www.city.kumamoto.jp/hpkiji/pub/detail.aspx?c_id=5&type=top&id=12495,,2016-04-30 03:09:30 +0900,藤田
秋津中央公園,（開設中）秋津中央公園,32.775713,130.77348,,熊本県 熊本市東区 東野 2丁目26,,不明,（まだ入力されていません）,（まだ入力されていません）,（まだ入力されていません）,（まだ入力されていません）,（まだ入力されていません）,（まだ入力されていません）,,開設中,,開設中,,,,,http://www.city.kumamoto.jp/hpkiji/pub/detail.aspx?c_id=5&type=top&id=12495,,2016-04-30 03:09:30 +0900,藤田
泉ケ丘小学校,（開設中）泉ケ丘小学校,32.776728,130.753313,,熊本県 熊本市東区 水源 1丁目7-1,,不明,（まだ入力されていません）,（まだ入力されていません）,（まだ入力されていません）,（まだ入力されていません）,（まだ入力されていません）,（まだ入力されていません）,,開設中,,開設中,,,,,http://www.city.kumamoto.jp/hpkiji/pub/detail.aspx?c_id=5&type=top&id=12495,,2016-04-30 03:09:30 +0900,藤田
画図小学校,（開設中）画図小学校,32.7672346,130.7400787,,熊本県 熊本市東区 下江津 8丁目1-6,,不明,（まだ入力されていません）,（まだ入力されていません）,（まだ入力されていません）,（まだ入力されていません）,（まだ入力されていません）,（まだ入力されていません）,,開設中,,開設中,,,,,http://www.city.kumamoto.jp/hpkiji/pub/detail.aspx?c_id=5&type=top&id=12495,,2016-04-30 03:09:30 +0900,藤田
尾ノ上小学校,（開設中）尾ノ上小学校,32.7935405,130.75385,,熊本県 熊本市東区 尾ノ上 2丁目8-1,,不明,（まだ入力されていません）,（まだ入力されていません）,（まだ入力されていません）,（まだ入力されていません）,（まだ入力されていません）,（まだ入力されていません）,,開設中,,開設中,,,,,http://www.city.kumamoto.jp/hpkiji/pub/detail.aspx?c_id=5&type=top&id=12495,,2016-04-30 03:09:30 +0900,藤田
錦ケ丘中学校,（開設中）錦ケ丘中学校,32.7909098,130.7572116,,熊本県 熊本市東区 錦ケ丘 22-1,,不明,（まだ入力されていません）,（まだ入力されていません）,（まだ入力されていません）,（まだ入力されていません）,（まだ入力されていません）,（まだ入力されていません）,,開設中,,開設中,,,,,http://www.city.kumamoto.jp/hpkiji/pub/detail.aspx?c_id=5&type=top&id=12495,,2016-04-30 03:09:30 +0900,藤田
錦ケ丘公園,（開設中）錦ケ丘公園,32.7910102,130.7531194,,熊本県 熊本市東区 錦ケ丘 8,,不明,（まだ入力されていません）,（まだ入力されていません）,（まだ入力されていません）,（まだ入力されていません）,（まだ入力されていません）,（まだ入力されていません）,,開設中,,開設中,,,,,http://www.city.kumamoto.jp/hpkiji/pub/detail.aspx?c_id=5&type=top&id=12495,,2016-04-30 03:09:30 +0900,藤田
健軍小学校,（開設中）健軍小学校,32.7841785,130.7524026,,熊本県 熊本市東区 健軍 2-25-56,,不明,（まだ入力されていません）,（まだ入力されていません）,（まだ入力されていません）,（まだ入力されていません）,（まだ入力されていません）,（まだ入力されていません）,,開設中,,開設中,,,,,http://www.city.kumamoto.jp/hpkiji/pub/detail.aspx?c_id=5&type=top&id=12495,,2016-04-30 03:09:30 +0900,藤田
湖東中学校,（開設中）湖東中学校,32.7813555,130.7480169,,熊本県 熊本市東区 湖東 1丁目13-1,,不明,（まだ入力されていません）,（まだ入力されていません）,（まだ入力されていません）,（まだ入力されていません）,（まだ入力されていません）,（まだ入力されていません）,,開設中,,開設中,,,,,http://www.city.kumamoto.jp/hpkiji/pub/detail.aspx?c_id=5&type=top&id=12495,,2016-04-30 03:09:30 +0900,藤田
健軍東小学校,（開設中）健軍東小学校,32.7832693,130.7644522,,熊本県 熊本市東区 東町 4丁目15-2,,不明,（まだ入力されていません）,（まだ入力されていません）,（まだ入力されていません）,（まだ入力されていません）,（まだ入力されていません）,（まだ入力されていません）,,開設中,,開設中,,,,,http://www.city.kumamoto.jp/hpkiji/pub/detail.aspx?c_id=5&type=top&id=12495,,2016-04-30 03:09:30 +0900,藤田
桜木小学校,（開設中）桜木小学校,32.7814047,130.7767007,,熊本県 熊本市東区 花立 2丁目23-1,,不明,（まだ入力されていません）,（まだ入力されていません）,（まだ入力されていません）,（まだ入力されていません）,（まだ入力されていません）,（まだ入力されていません）,,開設中,,開設中,,,,,http://www.city.kumamoto.jp/hpkiji/pub/detail.aspx?c_id=5&type=top&id=12495,,2016-04-30 03:09:30 +0900,藤田
桜木東小学校,（開設中）桜木東小学校,32.7884414,130.7818983,,熊本県 熊本市東区 桜木 6丁目10-1,,不明,（まだ入力されていません）,（まだ入力されていません）,（まだ入力されていません）,（まだ入力されていません）,（まだ入力されていません）,（まだ入力されていません）,,開設中,,開設中,,,,,http://www.city.kumamoto.jp/hpkiji/pub/detail.aspx?c_id=5&type=top&id=12495,,2016-04-30 03:09:30 +0900,藤田
桜木中学校,（開設中）桜木中学校,32.7825363,130.7829594,,熊本県 熊本市東区 桜木 4丁目13-23,,不明,（まだ入力されていません）,（まだ入力されていません）,（まだ入力されていません）,（まだ入力されていません）,（まだ入力されていません）,（まだ入力されていません）,,開設中,,開設中,,,,,http://www.city.kumamoto.jp/hpkiji/pub/detail.aspx?c_id=5&type=top&id=12495,,2016-04-30 03:09:30 +0900,藤田
託麻北小学校,（開設中）託麻北小学校,32.8391818,130.7740102,,熊本県 熊本市東区 上南部 3丁目34-1,,不明,（まだ入力されていません）,（まだ入力されていません）,（まだ入力されていません）,（まだ入力されていません）,（まだ入力されていません）,（まだ入力されていません）,,開設中,,開設中,,,,,http://www.city.kumamoto.jp/hpkiji/pub/detail.aspx?c_id=5&type=top&id=12495,,2016-04-30 03:09:30 +0900,藤田
東部中学校,（開設中）東部中学校,32.8339725,130.771003,,熊本県 熊本市東区 上南部 2丁目21-1,,不明,（まだ入力されていません）,（まだ入力されていません）,（まだ入力されていません）,（まだ入力されていません）,（まだ入力されていません）,（まだ入力されていません）,,開設中,,開設中,,,,,http://www.city.kumamoto.jp/hpkiji/pub/detail.aspx?c_id=5&type=top&id=12495,,2016-04-30 03:09:30 +0900,藤田
託麻スポーツセンター,（開設中）託麻スポーツセンター,32.837325,130.774196,,熊本県 熊本市東区 上南部 3丁目22-30,,不明,（まだ入力されていません）,（まだ入力されていません）,（まだ入力されていません）,（まだ入力されていません）,（まだ入力されていません）,（まだ入力されていません）,,開設中,,開設中,,,,,http://www.city.kumamoto.jp/hpkiji/pub/detail.aspx?c_id=5&type=top&id=12495,,2016-04-30 03:09:30 +0900,藤田
託麻西小学校,（開設中）託麻西小学校,32.821374,130.7659973,,熊本県 熊本市東区 御領 2丁目3-30,,不明,（まだ入力されていません）,（まだ入力されていません）,（まだ入力されていません）,（まだ入力されていません）,（まだ入力されていません）,（まだ入力されていません）,,開設中,,開設中,,,,,http://www.city.kumamoto.jp/hpkiji/pub/detail.aspx?c_id=5&type=top&id=12495,,2016-04-30 03:09:30 +0900,藤田
託麻東小学校,（開設中）託麻東小学校,32.8245408,130.7939287,,熊本県 熊本市東区 戸島 3丁目15-1,,不明,（まだ入力されていません）,（まだ入力されていません）,（まだ入力されていません）,（まだ入力されていません）,（まだ入力されていません）,（まだ入力されていません）,,開設中,,開設中,,,,,http://www.city.kumamoto.jp/hpkiji/pub/detail.aspx?c_id=5&type=top&id=12495,,2016-04-30 03:09:30 +0900,藤田
託麻総合出張所,（開設中）託麻総合出張所,32.821374,130.7659973,,熊本県 熊本市東区 御領 2丁目3-30,,不明,（まだ入力されていません）,（まだ入力されていません）,（まだ入力されていません）,（まだ入力されていません）,（まだ入力されていません）,（まだ入力されていません）,,開設中,,開設中,,,,,http://www.city.kumamoto.jp/hpkiji/pub/detail.aspx?c_id=5&type=top&id=12495,,2016-04-30 03:09:30 +0900,藤田
託麻南小学校,（開設中）託麻南小学校,32.8178304,130.7765512,,熊本県 熊本市東区 長嶺東 3丁目2-20,,不明,（まだ入力されていません）,（まだ入力されていません）,（まだ入力されていません）,（まだ入力されていません）,（まだ入力されていません）,（まだ入力されていません）,,開設中,,開設中,,,,,http://www.city.kumamoto.jp/hpkiji/pub/detail.aspx?c_id=5&type=top&id=12495,,2016-04-30 03:09:30 +0900,藤田
月出小学校,（開設中）月出小学校,32.804962,130.7708843,,熊本県 熊本市東区 月出 6丁目2-40,,不明,（まだ入力されていません）,（まだ入力されていません）,（まだ入力されていません）,（まだ入力されていません）,（まだ入力されていません）,（まだ入力されていません）,,開設中,,開設中,,,,,http://www.city.kumamoto.jp/hpkiji/pub/detail.aspx?c_id=5&type=top&id=12495,,2016-04-30 03:09:30 +0900,藤田
長嶺小学校,（開設中）長嶺小学校,32.812656,130.7795677,,熊本県 熊本市東区 長嶺南 7-22-1,,不明,（まだ入力されていません）,（まだ入力されていません）,（まだ入力されていません）,（まだ入力されていません）,（まだ入力されていません）,（まだ入力されていません）,,開設中,,開設中,,,,,http://www.city.kumamoto.jp/hpkiji/pub/detail.aspx?c_id=5&type=top&id=12495,,2016-04-30 03:09:30 +0900,藤田
長嶺中学校,（開設中）長嶺中学校,32.814178,130.7785011,,熊本県 熊本市東区 長嶺南 7丁目21-40,,不明,（まだ入力されていません）,（まだ入力されていません）,（まだ入力されていません）,（まだ入力されていません）,（まだ入力されていません）,（まだ入力されていません）,,開設中,,開設中,,,,,http://www.city.kumamoto.jp/hpkiji/pub/detail.aspx?c_id=5&type=top&id=12495,,2016-04-30 03:09:30 +0900,藤田
西原小学校,（開設中）西原小学校,32.8129694,130.7478585,,熊本県 熊本市東区 新南部 3丁目4-60,,不明,（まだ入力されていません）,（まだ入力されていません）,（まだ入力されていません）,（まだ入力されていません）,（まだ入力されていません）,（まだ入力されていません）,,開設中,,開設中,,,,,http://www.city.kumamoto.jp/hpkiji/pub/detail.aspx?c_id=5&type=top&id=12495,,2016-04-30 03:09:30 +0900,藤田
西原中学校,（開設中）西原中学校,32.809607,130.755882,,熊本県 熊本市東区 保田窪 4丁目9-1,,不明,（まだ入力されていません）,（まだ入力されていません）,（まだ入力されていません）,（まだ入力されていません）,（まだ入力されていません）,（まだ入力されていません）,,開設中,,開設中,,,,,http://www.city.kumamoto.jp/hpkiji/pub/detail.aspx?c_id=5&type=top&id=12495,,2016-04-30 03:09:30 +0900,藤田
東町小学校,（開設中）東町小学校,32.7864046,130.7675208,,熊本県 熊本市東区 東町 3丁目3-1,,不明,（まだ入力されていません）,（まだ入力されていません）,（まだ入力されていません）,（まだ入力されていません）,（まだ入力されていません）,（まだ入力されていません）,,開設中,,開設中,,,,,http://www.city.kumamoto.jp/hpkiji/pub/detail.aspx?c_id=5&type=top&id=12495,,2016-04-30 03:09:30 +0900,藤田
県立第二高校,（開設中）県立第二高校,32.7823333,130.7671659,,熊本県 熊本市東区 東町 3丁目13-1,,不明,（まだ入力されていません）,（まだ入力されていません）,（まだ入力されていません）,（まだ入力されていません）,（まだ入力されていません）,（まだ入力されていません）,,開設中,,開設中,,,,,http://www.city.kumamoto.jp/hpkiji/pub/detail.aspx?c_id=5&type=top&id=12495,,2016-04-30 03:09:30 +0900,藤田
山ノ内小学校,（開設中）山ノ内小学校,32.7980711,130.7710545,,熊本県 熊本市東区 山ノ内 4丁目1-1,,不明,（まだ入力されていません）,（まだ入力されていません）,（まだ入力されていません）,（まだ入力されていません）,（まだ入力されていません）,（まだ入力されていません）,,開設中,,開設中,,,,,http://www.city.kumamoto.jp/hpkiji/pub/detail.aspx?c_id=5&type=top&id=12495,,2016-04-30 03:09:30 +0900,藤田
山ノ内中央公園,（開設中）山ノ内中央公園,32.79687,130.768525,,熊本県 熊本市東区 山ノ内 3丁目1,,不明,（まだ入力されていません）,（まだ入力されていません）,（まだ入力されていません）,（まだ入力されていません）,（まだ入力されていません）,（まだ入力されていません）,,開設中,,開設中,,,,,http://www.city.kumamoto.jp/hpkiji/pub/detail.aspx?c_id=5&type=top&id=12495,,2016-04-30 03:09:30 +0900,藤田
東稜高校,（開設中）東稜高校,32.7993434,130.7783624,,熊本県 熊本市東区 小峯 4丁目5-10,,不明,（まだ入力されていません）,（まだ入力されていません）,（まだ入力されていません）,（まだ入力されていません）,（まだ入力されていません）,（まだ入力されていません）,,開設中,,開設中,,,,,http://www.city.kumamoto.jp/hpkiji/pub/detail.aspx?c_id=5&type=top&id=12495,,2016-04-30 03:09:30 +0900,藤田
若葉小学校,（開設中）若葉小学校,32.772732,130.7634053,,熊本県 熊本市東区 若葉 4丁目23-1,,不明,（まだ入力されていません）,（まだ入力されていません）,（まだ入力されていません）,（まだ入力されていません）,（まだ入力されていません）,（まだ入力されていません）,,開設中,,開設中,,,,,http://www.city.kumamoto.jp/hpkiji/pub/detail.aspx?c_id=5&type=top&id=12495,,2016-04-30 03:09:30 +0900,藤田
画図地域コミュニティセンター,（開設中）画図地域コミュニティセンター,32.7714425,130.7364455,,熊本県 熊本市東区 画図町下江津 8丁目1-10,,不明,（まだ入力されていません）,（まだ入力されていません）,（まだ入力されていません）,（まだ入力されていません）,（まだ入力されていません）,（まだ入力されていません）,,開設中,,開設中,,,,,http://www.city.kumamoto.jp/hpkiji/pub/detail.aspx?c_id=5&type=top&id=12495,,2016-04-30 03:09:30 +0900,藤田
東町老人憩の家,（開設中）東町老人憩の家,32.7955963,130.7729044,,熊本県 熊本市東区 山ノ神 1丁目8-98,,不明,（まだ入力されていません）,（まだ入力されていません）,（まだ入力されていません）,（まだ入力されていません）,（まだ入力されていません）,（まだ入力されていません）,,開設中,,開設中,,,,,http://www.city.kumamoto.jp/hpkiji/pub/detail.aspx?c_id=5&type=top&id=12495,,2016-04-30 03:09:30 +0900,藤田
県営東町団地集会所,（開設中）県営東町団地集会所＜詳細位置不明＞,32.785518,130.769212,,熊本県 熊本市東区 東町3丁目6,,不明,（まだ入力されていません）,（まだ入力されていません）,（まだ入力されていません）,（まだ入力されていません）,（まだ入力されていません）,（まだ入力されていません）,,開設中,,開設中,,,,,http://www.city.kumamoto.jp/hpkiji/pub/detail.aspx?c_id=5&type=top&id=12495,詳細位置不明,2016-04-30 03:09:30 +0900,藤田
泉ケ丘校区公民館,（開設中）泉ケ丘校区公民館,32.7754727,130.7590664,,熊本県 熊本市東区 水源 2丁目4-1,,不明,（まだ入力されていません）,（まだ入力されていません）,（まだ入力されていません）,（まだ入力されていません）,（まだ入力されていません）,（まだ入力されていません）,,開設中,,開設中,,,,,http://www.city.kumamoto.jp/hpkiji/pub/detail.aspx?c_id=5&type=top&id=12495,,2016-04-30 03:09:30 +0900,藤田
尾ノ上コミュニティセンター,（開設中）尾ノ上コミュニティセンター,32.7922073,130.7534639,,熊本県 熊本市東区 錦ケ丘 8-20,,不明,（まだ入力されていません）,（まだ入力されていません）,（まだ入力されていません）,（まだ入力されていません）,（まだ入力されていません）,（まだ入力されていません）,,開設中,,開設中,,,,,http://www.city.kumamoto.jp/hpkiji/pub/detail.aspx?c_id=5&type=top&id=12495,,2016-04-30 03:09:30 +0900,藤田
健軍本町公園,（開設中）健軍本町公園,32.7860052,130.759258,,熊本県 熊本市東区 健軍本町,,不明,（まだ入力されていません）,（まだ入力されていません）,（まだ入力されていません）,（まだ入力されていません）,（まだ入力されていません）,（まだ入力されていません）,,開設中,,開設中,,,,,http://www.city.kumamoto.jp/hpkiji/pub/detail.aspx?c_id=5&type=top&id=12495,,2016-04-30 03:09:30 +0900,藤田
えがお,（開設中）えがお,32.7833943,130.761569,,熊本県 熊本市東区 東町 4-10-1,,不明,（まだ入力されていません）,（まだ入力されていません）,（まだ入力されていません）,（まだ入力されていません）,（まだ入力されていません）,（まだ入力されていません）,,開設中,,開設中,,,,,http://www.city.kumamoto.jp/hpkiji/pub/detail.aspx?c_id=5&type=top&id=12495,,2016-04-30 03:09:30 +0900,藤田
税務大学校熊本研修所,（開設中）税務大学校熊本研修所,32.7803141,130.7672409,,熊本県 熊本市東区 東本町 16-1,,不明,（まだ入力されていません）,（まだ入力されていません）,（まだ入力されていません）,（まだ入力されていません）,（まだ入力されていません）,（まだ入力されていません）,,開設中,,開設中,,,,,http://www.city.kumamoto.jp/hpkiji/pub/detail.aspx?c_id=5&type=top&id=12495,,2016-04-30 03:09:30 +0900,藤田
ザ・ダイソー百円館熊本花立店,（開設中）ザ・ダイソー百円館熊本花立店,32.782768,130.773845,,熊本県 熊本市東区 花立 3丁目16-13,,不明,（まだ入力されていません）,（まだ入力されていません）,（まだ入力されていません）,（まだ入力されていません）,（まだ入力されていません）,（まだ入力されていません）,,開設中,,開設中,,,,,http://www.city.kumamoto.jp/hpkiji/pub/detail.aspx?c_id=5&type=top&id=12495,,2016-04-30 03:09:30 +0900,藤田
東町地域コミュニティセンター,（開設中）東町地域コミュニティセンター,32.793243,130.777278,,熊本県 熊本市東区 佐土原 3丁目1-43,,不明,（まだ入力されていません）,（まだ入力されていません）,（まだ入力されていません）,（まだ入力されていません）,（まだ入力されていません）,（まだ入力されていません）,,開設中,,開設中,,,,,http://www.city.kumamoto.jp/hpkiji/pub/detail.aspx?c_id=5&type=top&id=12495,,2016-04-30 03:09:30 +0900,藤田
県営江津湖団地第一集会所,（開設中）県営江津湖団地第一集会所,32.777398,130.73402,,"熊本県 熊本市東区 江津 2丁目10, 12",,不明,（まだ入力されていません）,（まだ入力されていません）,（まだ入力されていません）,（まだ入力されていません）,（まだ入力されていません）,（まだ入力されていません）,,開設中,,開設中,,,,,http://www.city.kumamoto.jp/hpkiji/pub/detail.aspx?c_id=5&type=top&id=12495,,2016-04-30 03:09:30 +0900,藤田
県営江津湖団地第二集会所,（開設中）県営江津湖団地第二集会所,32.77743,130.734101,,"熊本県 熊本市東区 江津 2丁目10, 12",,不明,（まだ入力されていません）,（まだ入力されていません）,（まだ入力されていません）,（まだ入力されていません）,（まだ入力されていません）,（まだ入力されていません）,,開設中,,開設中,,,,,http://www.city.kumamoto.jp/hpkiji/pub/detail.aspx?c_id=5&type=top&id=12495,,2016-04-30 03:09:30 +0900,藤田
間島団地,（開設中）間島団地＜詳細位置不明＞,,,,熊本県 熊本市東区,,不明,（まだ入力されていません）,（まだ入力されていません）,（まだ入力されていません）,（まだ入力されていません）,（まだ入力されていません）,（まだ入力されていません）,,開設中,,開設中,,,,,http://www.city.kumamoto.jp/hpkiji/pub/detail.aspx?c_id=5&type=top&id=12495,詳細位置不明,2016-04-30 03:09:30 +0900,藤田
シュロアモール長嶺,（開設中）シュロアモール長嶺,32.811558,130.761835,,熊本県 熊本市東区 長嶺西 1丁目5-1,,不明,（まだ入力されていません）,（まだ入力されていません）,（まだ入力されていません）,（まだ入力されていません）,（まだ入力されていません）,（まだ入力されていません）,,開設中,,開設中,,,,,http://www.city.kumamoto.jp/hpkiji/pub/detail.aspx?c_id=5&type=top&id=12495,,2016-04-30 03:09:30 +0900,藤田
県営東町団地第4集会所,（開設中）県営東町団地第4集会所＜詳細位置不明＞,32.785545,130.769062,,熊本県 熊本市東区 東町3丁目6,,不明,（まだ入力されていません）,（まだ入力されていません）,（まだ入力されていません）,（まだ入力されていません）,（まだ入力されていません）,（まだ入力されていません）,,開設中,,開設中,,,,,http://www.city.kumamoto.jp/hpkiji/pub/detail.aspx?c_id=5&type=top&id=12495,詳細位置不明,2016-04-30 03:09:30 +0900,藤田
花立老人憩いの家,（開設中）花立老人憩いの家,32.786216,130.773711,,熊本県 熊本市東区 花立 5丁目12-41,,不明,（まだ入力されていません）,（まだ入力されていません）,（まだ入力されていません）,（まだ入力されていません）,（まだ入力されていません）,（まだ入力されていません）,,開設中,,開設中,,,,,http://www.city.kumamoto.jp/hpkiji/pub/detail.aspx?c_id=5&type=top&id=12495,,2016-04-30 03:09:30 +0900,藤田
コープ熊本学校生活協同組合 尾ノ上店,（開設中）コープ熊本学校生活協同組合 尾ノ上店,32.794041,130.759368,,熊本県 熊本市東区 尾ノ上 4丁目17-35,,不明,（まだ入力されていません）,（まだ入力されていません）,（まだ入力されていません）,（まだ入力されていません）,（まだ入力されていません）,（まだ入力されていません）,,開設中,,開設中,,,,,http://www.city.kumamoto.jp/hpkiji/pub/detail.aspx?c_id=5&type=top&id=12495,,2016-04-30 03:09:30 +0900,藤田
山ノ神公民館,（開設中）山ノ神公民館,32.796958,130.773439,,熊本県 熊本市東区 山ノ神 1丁目10,,不明,（まだ入力されていません）,（まだ入力されていません）,（まだ入力されていません）,（まだ入力されていません）,（まだ入力されていません）,（まだ入力されていません）,,開設中,,開設中,,,,,http://www.city.kumamoto.jp/hpkiji/pub/detail.aspx?c_id=5&type=top&id=12495,,2016-04-30 03:09:30 +0900,藤田
広福保育園,（開設中）広福保育園,32.82549,130.777128,,熊本県 熊本市東区 長嶺 5丁目23-25,,不明,（まだ入力されていません）,（まだ入力されていません）,（まだ入力されていません）,（まだ入力されていません）,（まだ入力されていません）,（まだ入力されていません）,,開設中,,開設中,,,,,http://www.city.kumamoto.jp/hpkiji/pub/detail.aspx?c_id=5&type=top&id=12495,,2016-04-30 03:09:30 +0900,藤田
上ノ原憩いの家,（開設中）上ノ原憩いの家,32.784029,130.756803,,熊本県 熊本市東区 健軍本町 35-17,,不明,（まだ入力されていません）,（まだ入力されていません）,（まだ入力されていません）,（まだ入力されていません）,（まだ入力されていません）,（まだ入力されていません）,,開設中,,開設中,,,,,http://www.city.kumamoto.jp/hpkiji/pub/detail.aspx?c_id=5&type=top&id=12495,,2016-04-30 03:09:30 +0900,藤田
西原地域コミュニティセンター,（開設中）西原地域コミュニティセンター,32.813554,130.753395,,熊本県 熊本市東区 西原 1丁目6-28,,不明,（まだ入力されていません）,（まだ入力されていません）,（まだ入力されていません）,（まだ入力されていません）,（まだ入力されていません）,（まだ入力されていません）,,開設中,,開設中,,,,,http://www.city.kumamoto.jp/hpkiji/pub/detail.aspx?c_id=5&type=top&id=12495,,2016-04-30 03:09:30 +0900,藤田
長嶺団地第1集会所,（開設中）長嶺団地第1集会所,32.811069,130.772059,,熊本県 熊本市東区 長嶺南 3丁目10-1～10,,不明,（まだ入力されていません）,（まだ入力されていません）,（まだ入力されていません）,（まだ入力されていません）,（まだ入力されていません）,（まだ入力されていません）,,開設中,,開設中,,,,,http://www.city.kumamoto.jp/hpkiji/pub/detail.aspx?c_id=5&type=top&id=12495,,2016-04-30 03:09:30 +0900,藤田
長嶺団地第2集会所,（開設中）長嶺団地第2集会所,32.811114,130.772204,,熊本県 熊本市東区 長嶺南 3丁目10-1～10,,不明,（まだ入力されていません）,（まだ入力されていません）,（まだ入力されていません）,（まだ入力されていません）,（まだ入力されていません）,（まだ入力されていません）,,開設中,,開設中,,,,,http://www.city.kumamoto.jp/hpkiji/pub/detail.aspx?c_id=5&type=top&id=12495,,2016-04-30 03:09:30 +0900,藤田
秋津中央公園老人憩の家,（開設中）秋津中央公園老人憩の家,32.775778,130.774077,,熊本県 熊本市東区 東野 2丁目26,,不明,（まだ入力されていません）,（まだ入力されていません）,（まだ入力されていません）,（まだ入力されていません）,（まだ入力されていません）,（まだ入力されていません）,,開設中,,開設中,,,,,http://www.city.kumamoto.jp/hpkiji/pub/detail.aspx?c_id=5&type=top&id=12495,,2016-04-30 03:09:30 +0900,藤田
若葉団地集会所,（開設中）若葉団地集会所＜詳細位置不明＞,32.776179,130.763278,,熊本県 熊本市東区 若葉 2丁目11,,不明,（まだ入力されていません）,（まだ入力されていません）,（まだ入力されていません）,（まだ入力されていません）,（まだ入力されていません）,（まだ入力されていません）,,開設中,,開設中,,,,,http://www.city.kumamoto.jp/hpkiji/pub/detail.aspx?c_id=5&type=top&id=12495,詳細位置不明,2016-04-30 03:09:30 +0900,藤田
託麻団地集会所,（開設中）託麻団地集会所,32.818924,130.757383,,熊本県 熊本市東区 西原 3丁目2,,不明,（まだ入力されていません）,（まだ入力されていません）,（まだ入力されていません）,（まだ入力されていません）,（まだ入力されていません）,（まだ入力されていません）,,開設中,,開設中,,,,,http://www.city.kumamoto.jp/hpkiji/pub/detail.aspx?c_id=5&type=top&id=12495,,2016-04-30 03:09:30 +0900,藤田
戸島団地集会場,（開設中）戸島団地集会場,32.812031,130.788518,,熊本県 熊本市東区 戸島西 1丁目34-3,,不明,（まだ入力されていません）,（まだ入力されていません）,（まだ入力されていません）,（まだ入力されていません）,（まだ入力されていません）,（まだ入力されていません）,,開設中,,開設中,,,,,http://www.city.kumamoto.jp/hpkiji/pub/detail.aspx?c_id=5&type=top&id=12495,,2016-04-30 03:09:30 +0900,藤田
栄第2団地集会所,（開設中）栄第2団地集会所,32.774903,130.761635,,熊本県 熊本市東区 若葉 3丁目5,,不明,（まだ入力されていません）,（まだ入力されていません）,（まだ入力されていません）,（まだ入力されていません）,（まだ入力されていません）,（まだ入力されていません）,,開設中,,開設中,,,,,http://www.city.kumamoto.jp/hpkiji/pub/detail.aspx?c_id=5&type=top&id=12495,,2016-04-30 03:09:30 +0900,藤田
若葉老人憩の家,（開設中）若葉老人憩の家,32.775821,130.762396,,熊本県 熊本市東区 若葉 1丁目43-12,,不明,（まだ入力されていません）,（まだ入力されていません）,（まだ入力されていません）,（まだ入力されていません）,（まだ入力されていません）,（まだ入力されていません）,,開設中,,開設中,,,,,http://www.city.kumamoto.jp/hpkiji/pub/detail.aspx?c_id=5&type=top&id=12495,,2016-04-30 03:09:30 +0900,藤田
市営佐土原団地集会室,（開設中）市営佐土原団地集会室,32.791433,130.769699,,熊本県 熊本市東区 榎町 1-3,,不明,（まだ入力されていません）,（まだ入力されていません）,（まだ入力されていません）,（まだ入力されていません）,（まだ入力されていません）,（まだ入力されていません）,,開設中,,開設中,,,,,http://www.city.kumamoto.jp/hpkiji/pub/detail.aspx?c_id=5&type=top&id=12495,,2016-04-30 03:09:30 +0900,藤田
県営西戸島団地,（開設中）県営西戸島団地,32.810879,130.784613,,"熊本県 熊本市東区 戸島西 1丁目16, 25, 26, 27",,不明,（まだ入力されていません）,（まだ入力されていません）,（まだ入力されていません）,（まだ入力されていません）,（まだ入力されていません）,（まだ入力されていません）,,開設中,,開設中,,,,,http://www.city.kumamoto.jp/hpkiji/pub/detail.aspx?c_id=5&type=top&id=12495,,2016-04-30 03:09:30 +0900,藤田
市営小山団地集会所,（開設中）市営小山団地集会所,32.827723,130.786663,,熊本県 熊本市東区 小山 2丁目12-3,,不明,（まだ入力されていません）,（まだ入力されていません）,（まだ入力されていません）,（まだ入力されていません）,（まだ入力されていません）,（まだ入力されていません）,,開設中,,開設中,,,,,http://www.city.kumamoto.jp/hpkiji/pub/detail.aspx?c_id=5&type=top&id=12495,,2016-04-30 03:09:30 +0900,藤田
県営八反田団地集会所,（開設中）県営八反田団地集会所,32.817907,130.76966,,熊本県 熊本市東区 長嶺東 1丁目8-9,,不明,（まだ入力されていません）,（まだ入力されていません）,（まだ入力されていません）,（まだ入力されていません）,（まだ入力されていません）,（まだ入力されていません）,,開設中,,開設中,,,,,http://www.city.kumamoto.jp/hpkiji/pub/detail.aspx?c_id=5&type=top&id=12495,,2016-04-30 03:09:30 +0900,藤田
花立ファミリーハウス,（開設中）花立ファミリーハウス,32.787618,130.773773,,熊本県 熊本市東区 花立 5丁目12-1,,不明,（まだ入力されていません）,（まだ入力されていません）,（まだ入力されていません）,（まだ入力されていません）,（まだ入力されていません）,（まだ入力されていません）,,開設中,,開設中,,,,,http://www.city.kumamoto.jp/hpkiji/pub/detail.aspx?c_id=5&type=top&id=12495,,2016-04-30 03:09:30 +0900,藤田
熊本市健軍文化ホール,（開設中）熊本市健軍文化ホール,32.775093,130.762075,,熊本県 熊本市東区 若葉 3丁目5-11,,不明,（まだ入力されていません）,（まだ入力されていません）,（まだ入力されていません）,（まだ入力されていません）,（まだ入力されていません）,（まだ入力されていません）,,開設中,,開設中,,,,,http://www.city.kumamoto.jp/hpkiji/pub/detail.aspx?c_id=5&type=top&id=12495,,2016-04-30 03:09:30 +0900,藤田
長嶺トーカンマンション,（開設中）長嶺トーカンマンション＜詳細位置不明＞,,,,熊本県 熊本市東区,,不明,（まだ入力されていません）,（まだ入力されていません）,（まだ入力されていません）,（まだ入力されていません）,（まだ入力されていません）,（まだ入力されていません）,,開設中,,開設中,,,,,http://www.city.kumamoto.jp/hpkiji/pub/detail.aspx?c_id=5&type=top&id=12495,詳細位置不明,2016-04-30 03:09:30 +0900,藤田
県営泉ヶ丘団地集会所,（開設中）県営泉ヶ丘団地集会所,32.775337,130.756409,,"熊本県 熊本市東区 水源 1丁目19, 21, 23",,不明,（まだ入力されていません）,（まだ入力されていません）,（まだ入力されていません）,（まだ入力されていません）,（まだ入力されていません）,（まだ入力されていません）,,開設中,,開設中,,,,,http://www.city.kumamoto.jp/hpkiji/pub/detail.aspx?c_id=5&type=top&id=12495,,2016-04-30 03:09:30 +0900,藤田
若葉第4町内公民館,（閉鎖）若葉第4町内公民館,32.768757,130.760777,,熊本県 熊本市東区 若葉 6丁目2-23,,不明,（まだ入力されていません）,（まだ入力されていません）,（まだ入力されていません）,（まだ入力されていません）,（まだ入力されていません）,（まだ入力されていません）,,閉鎖,,閉鎖,,,,,http://www.city.kumamoto.jp/hpkiji/pub/detail.aspx?c_id=5&type=top&id=12495,,2016-04-30 03:09:30 +0900,藤田
東区役所,（閉鎖）東区役所,32.7805502,130.7680825,,熊本県 熊本市東区 東本町 16-30,,不明,（まだ入力されていません）,（まだ入力されていません）,（まだ入力されていません）,（まだ入力されていません）,（まだ入力されていません）,（まだ入力されていません）,,閉鎖,,閉鎖,,,,,http://www.city.kumamoto.jp/hpkiji/pub/detail.aspx?c_id=5&type=top&id=12495,,2016-04-30 03:09:30 +0900,藤田
東町中学校,（閉鎖）東町中学校,32.7814751,130.7647132,,熊本県 熊本市東区 東町 4丁目15-1,,不明,（まだ入力されていません）,（まだ入力されていません）,（まだ入力されていません）,（まだ入力されていません）,（まだ入力されていません）,（まだ入力されていません）,,閉鎖,,閉鎖,,,,,http://www.city.kumamoto.jp/hpkiji/pub/detail.aspx?c_id=5&type=top&id=12495,,2016-04-30 03:09:30 +0900,藤田
秋津1丁目公民館,（閉鎖）秋津1丁目公民館,32.7712018,130.773298,,熊本県 熊本市東区 秋津 3丁目15-1,,不明,（まだ入力されていません）,（まだ入力されていません）,（まだ入力されていません）,（まだ入力されていません）,（まだ入力されていません）,（まだ入力されていません）,,閉鎖,,閉鎖,,,,,http://www.city.kumamoto.jp/hpkiji/pub/detail.aspx?c_id=5&type=top&id=12495,,2016-04-30 03:09:30 +0900,藤田
東町営農集会場,（閉鎖）東町営農集会場＜詳細位置不明＞,,,,熊本県 熊本市東区,,不明,（まだ入力されていません）,（まだ入力されていません）,（まだ入力されていません）,（まだ入力されていません）,（まだ入力されていません）,（まだ入力されていません）,,閉鎖,,閉鎖,,,,,http://www.city.kumamoto.jp/hpkiji/pub/detail.aspx?c_id=5&type=top&id=12495,詳細位置不明,2016-04-30 03:09:30 +0900,藤田
県立大学,（閉鎖）県立大学,32.8056814,130.764916,,熊本県 熊本市東区 月出 3丁目1-100,,不明,（まだ入力されていません）,（まだ入力されていません）,（まだ入力されていません）,（まだ入力されていません）,（まだ入力されていません）,（まだ入力されていません）,,閉鎖,,閉鎖,,,,,http://www.city.kumamoto.jp/hpkiji/pub/detail.aspx?c_id=5&type=top&id=12495,,2016-04-30 03:09:30 +0900,藤田
河内公民館,（開設中）河内公民館,32.8367038,130.583829,,熊本県 熊本市西区 河内町船津 791,,不明,（まだ入力されていません）,（まだ入力されていません）,（まだ入力されていません）,（まだ入力されていません）,（まだ入力されていません）,（まだ入力されていません）,,開設中,,開設中,,,,,http://www.city.kumamoto.jp/hpkiji/pub/detail.aspx?c_id=5&type=top&id=12495,,2016-04-30 03:09:30 +0900,藤田
花園総合出張所,（開設中）花園総合出張所,32.8175774,130.6948615,,熊本県 熊本市西区 花園 5丁目8-3,,不明,（まだ入力されていません）,（まだ入力されていません）,（まだ入力されていません）,（まだ入力されていません）,（まだ入力されていません）,（まだ入力されていません）,,開設中,,開設中,,,,,http://www.city.kumamoto.jp/hpkiji/pub/detail.aspx?c_id=5&type=top&id=12495,,2016-04-30 03:09:30 +0900,藤田
西部公民館,（開設中）西部公民館,32.7763353,130.6475193,,熊本県 熊本市西区 小島 2丁目7-1,,不明,（まだ入力されていません）,（まだ入力されていません）,（まだ入力されていません）,（まだ入力されていません）,（まだ入力されていません）,（まだ入力されていません）,,開設中,,開設中,,,,,http://www.city.kumamoto.jp/hpkiji/pub/detail.aspx?c_id=5&type=top&id=12495,,2016-04-30 03:09:30 +0900,藤田
高橋小学校,（開設中）高橋小学校,32.7842367,130.6562972,,熊本県 熊本市西区 高橋町 1丁目6-1,,不明,（まだ入力されていません）,（まだ入力されていません）,（まだ入力されていません）,（まだ入力されていません）,（まだ入力されていません）,（まだ入力されていません）,,開設中,,開設中,,,,,http://www.city.kumamoto.jp/hpkiji/pub/detail.aspx?c_id=5&type=top&id=12495,,2016-04-30 03:09:30 +0900,藤田
古町小学校,（開設中）古町小学校,32.7823205,130.6895916,,熊本県 熊本市西区 二本木 4丁目9-65,,不明,（まだ入力されていません）,（まだ入力されていません）,（まだ入力されていません）,（まだ入力されていません）,（まだ入力されていません）,（まだ入力されていません）,,開設中,,開設中,,,,,http://www.city.kumamoto.jp/hpkiji/pub/detail.aspx?c_id=5&type=top&id=12495,,2016-04-30 03:09:30 +0900,藤田
小島小学校,（開設中）小島小学校,32.7789429,130.634586,,熊本県 熊本市西区 小島 7丁目9-1,,不明,（まだ入力されていません）,（まだ入力されていません）,（まだ入力されていません）,（まだ入力されていません）,（まだ入力されていません）,（まだ入力されていません）,,開設中,,開設中,,,,,http://www.city.kumamoto.jp/hpkiji/pub/detail.aspx?c_id=5&type=top&id=12495,,2016-04-30 03:09:30 +0900,藤田
城山小学校,（開設中）城山小学校,32.7780215,130.6571409,,熊本県 熊本市西区 城山大塘 1丁目23-1,,不明,（まだ入力されていません）,（まだ入力されていません）,（まだ入力されていません）,（まだ入力されていません）,（まだ入力されていません）,（まだ入力されていません）,,開設中,,開設中,,,,,http://www.city.kumamoto.jp/hpkiji/pub/detail.aspx?c_id=5&type=top&id=12495,,2016-04-30 03:09:30 +0900,藤田
池田小学校,（開設中）池田小学校,32.8251094,130.7040831,,熊本県 熊本市西区 池田 1丁目28-5,,不明,（まだ入力されていません）,（まだ入力されていません）,（まだ入力されていません）,（まだ入力されていません）,（まだ入力されていません）,（まだ入力されていません）,,開設中,,開設中,,,,,http://www.city.kumamoto.jp/hpkiji/pub/detail.aspx?c_id=5&type=top&id=12495,,2016-04-30 03:09:30 +0900,藤田
花園小学校,（開設中）花園小学校,32.8229425,130.6907649,,熊本県 熊本市西区 花園 6丁目9-15,,不明,（まだ入力されていません）,（まだ入力されていません）,（まだ入力されていません）,（まだ入力されていません）,（まだ入力されていません）,（まだ入力されていません）,,開設中,,開設中,,,,,http://www.city.kumamoto.jp/hpkiji/pub/detail.aspx?c_id=5&type=top&id=12495,,2016-04-30 03:09:30 +0900,藤田
春日小学校,（開設中）春日小学校,32.7900531,130.6861838,,熊本県 熊本市西区 春日 5-3-5,,不明,（まだ入力されていません）,（まだ入力されていません）,（まだ入力されていません）,（まだ入力されていません）,（まだ入力されていません）,（まだ入力されていません）,,開設中,,開設中,,,,,http://www.city.kumamoto.jp/hpkiji/pub/detail.aspx?c_id=5&type=top&id=12495,,2016-04-30 03:09:30 +0900,藤田
白坪小学校,（開設中）白坪小学校,32.7778146,130.684143,,熊本県 熊本市西区 蓮台寺 4丁目4-1,,不明,（まだ入力されていません）,（まだ入力されていません）,（まだ入力されていません）,（まだ入力されていません）,（まだ入力されていません）,（まだ入力されていません）,,開設中,,開設中,,,,,http://www.city.kumamoto.jp/hpkiji/pub/detail.aspx?c_id=5&type=top&id=12495,,2016-04-30 03:09:30 +0900,藤田
池上小学校,（開設中）池上小学校,32.7904982,130.6713642,,熊本県 熊本市西区 池上町 850,,不明,（まだ入力されていません）,（まだ入力されていません）,（まだ入力されていません）,（まだ入力されていません）,（まだ入力されていません）,（まだ入力されていません）,,開設中,,開設中,,,,,http://www.city.kumamoto.jp/hpkiji/pub/detail.aspx?c_id=5&type=top&id=12495,,2016-04-30 03:09:30 +0900,藤田
中島小学校,（開設中）中島小学校,32.766394,130.6289291,,熊本県 熊本市西区 中島町 538,,不明,（まだ入力されていません）,（まだ入力されていません）,（まだ入力されていません）,（まだ入力されていません）,（まだ入力されていません）,（まだ入力されていません）,,開設中,,開設中,,,,,http://www.city.kumamoto.jp/hpkiji/pub/detail.aspx?c_id=5&type=top&id=12495,,2016-04-30 03:09:30 +0900,藤田
城西小学校,（開設中）城西小学校,32.8058248,130.6830928,,熊本県 熊本市西区 島崎 3丁目12-60,,不明,（まだ入力されていません）,（まだ入力されていません）,（まだ入力されていません）,（まだ入力されていません）,（まだ入力されていません）,（まだ入力されていません）,,開設中,,開設中,,,,,http://www.city.kumamoto.jp/hpkiji/pub/detail.aspx?c_id=5&type=top&id=12495,,2016-04-30 03:09:30 +0900,藤田
松尾西小学校,（開設中）松尾西小学校,32.797813,130.614428,,熊本県 熊本市西区 松尾町上松尾 4456-1,,不明,（まだ入力されていません）,（まだ入力されていません）,（まだ入力されていません）,（まだ入力されていません）,（まだ入力されていません）,（まだ入力されていません）,,開設中,,開設中,,,,,http://www.city.kumamoto.jp/hpkiji/pub/detail.aspx?c_id=5&type=top&id=12495,,2016-04-30 03:09:30 +0900,藤田
三和中学校,（開設中）三和中学校,32.7860196,130.665237,,熊本県 熊本市西区 上高橋 1丁目4-1,,不明,（まだ入力されていません）,（まだ入力されていません）,（まだ入力されていません）,（まだ入力されていません）,（まだ入力されていません）,（まだ入力されていません）,,開設中,,開設中,,,,,http://www.city.kumamoto.jp/hpkiji/pub/detail.aspx?c_id=5&type=top&id=12495,,2016-04-30 03:09:30 +0900,藤田
花陵中学校,（開設中）花陵中学校,32.7792936,130.6785389,,熊本県 熊本市西区 八島 2丁目14-1,,不明,（まだ入力されていません）,（まだ入力されていません）,（まだ入力されていません）,（まだ入力されていません）,（まだ入力されていません）,（まだ入力されていません）,,開設中,,開設中,,,,,http://www.city.kumamoto.jp/hpkiji/pub/detail.aspx?c_id=5&type=top&id=12495,,2016-04-30 03:09:30 +0900,藤田
城西中学校,（開設中）城西中学校,32.7825741,130.6329201,,熊本県 熊本市西区 小島 8丁目17-1,,不明,（まだ入力されていません）,（まだ入力されていません）,（まだ入力されていません）,（まだ入力されていません）,（まだ入力されていません）,（まだ入力されていません）,,開設中,,開設中,,,,,http://www.city.kumamoto.jp/hpkiji/pub/detail.aspx?c_id=5&type=top&id=12495,,2016-04-30 03:09:30 +0900,藤田
井芹中学校,（開設中）井芹中学校,32.8209921,130.6986254,,熊本県 熊本市西区 上熊本 3丁目27-1,,不明,（まだ入力されていません）,（まだ入力されていません）,（まだ入力されていません）,（まだ入力されていません）,（まだ入力されていません）,（まだ入力されていません）,,開設中,,開設中,,,,,http://www.city.kumamoto.jp/hpkiji/pub/detail.aspx?c_id=5&type=top&id=12495,,2016-04-30 03:09:30 +0900,藤田
千原台高校,（開設中）千原台高校,32.8071578,130.687018,,熊本県 熊本市西区 島崎 2丁目37-1,,不明,（まだ入力されていません）,（まだ入力されていません）,（まだ入力されていません）,（まだ入力されていません）,（まだ入力されていません）,（まだ入力されていません）,,開設中,,開設中,,,,,http://www.city.kumamoto.jp/hpkiji/pub/detail.aspx?c_id=5&type=top&id=12495,,2016-04-30 03:09:30 +0900,藤田
熊本西高校,（開設中）熊本西高校,32.782725,130.649436,,熊本県 熊本市西区 城山大塘 5丁目5-15,,不明,（まだ入力されていません）,（まだ入力されていません）,（まだ入力されていません）,（まだ入力されていません）,（まだ入力されていません）,（まだ入力されていません）,,開設中,,開設中,,,,,http://www.city.kumamoto.jp/hpkiji/pub/detail.aspx?c_id=5&type=top&id=12495,,2016-04-30 03:09:30 +0900,藤田
熊本地方合同庁舎,（開設中）熊本地方合同庁舎,32.78691,130.688357,,熊本県 熊本市西区 春日 2丁目10-1,,不明,（まだ入力されていません）,（まだ入力されていません）,（まだ入力されていません）,（まだ入力されていません）,（まだ入力されていません）,（まだ入力されていません）,,開設中,,開設中,,,,,http://www.city.kumamoto.jp/hpkiji/pub/detail.aspx?c_id=5&type=top&id=12495,,2016-04-30 03:09:30 +0900,藤田
古荘公園,（開設中）古荘公園,32.813786,130.680461,,熊本県 熊本市西区 島崎 5丁目15,,不明,（まだ入力されていません）,（まだ入力されていません）,（まだ入力されていません）,（まだ入力されていません）,（まだ入力されていません）,「古荘公園」の誤りと思われる,,開設中,,開設中,,,,,http://www.city.kumamoto.jp/hpkiji/pub/detail.aspx?c_id=5&type=top&id=12495,,2016-04-30 03:09:30 +0900,藤田
アクアドームくまもと,（開設中）アクアドームくまもと,32.763308,130.667876,,熊本県 熊本市南区 荒尾 2丁目1-1,,不明,（まだ入力されていません）,（まだ入力されていません）,（まだ入力されていません）,（まだ入力されていません）,（まだ入力されていません）,（まだ入力されていません）,,開設中,,開設中,,,,,http://www.city.kumamoto.jp/hpkiji/pub/detail.aspx?c_id=5&type=top&id=12495,,2016-04-30 03:09:30 +0900,藤田
池上地域コミュニティセンター,（開設中）池上地域コミュニティセンター,32.7997278,130.6725504,,熊本県 熊本市西区 谷尾崎町 1035-3,,不明,（まだ入力されていません）,（まだ入力されていません）,（まだ入力されていません）,（まだ入力されていません）,（まだ入力されていません）,（まだ入力されていません）,,開設中,,開設中,,,,,http://www.city.kumamoto.jp/hpkiji/pub/detail.aspx?c_id=5&type=top&id=12495,,2016-04-30 03:09:30 +0900,藤田
松尾北地域コミュニティセンター,（開設中）松尾北地域コミュニティセンター,32.8118807,130.6251455,,熊本県 熊本市西区 松尾町平山 1,,不明,（まだ入力されていません）,（まだ入力されていません）,（まだ入力されていません）,（まだ入力されていません）,（まだ入力されていません）,（まだ入力されていません）,,開設中,,開設中,,,,,http://www.city.kumamoto.jp/hpkiji/pub/detail.aspx?c_id=5&type=top&id=12495,,2016-04-30 03:09:30 +0900,藤田
春日地域コミュニティセンター,（開設中）春日地域コミュニティセンター,32.7874762,130.6864352,,熊本県 熊本市西区 春日 6丁目4-2,,不明,（まだ入力されていません）,（まだ入力されていません）,（まだ入力されていません）,（まだ入力されていません）,（まだ入力されていません）,（まだ入力されていません）,,開設中,,開設中,,,,,http://www.city.kumamoto.jp/hpkiji/pub/detail.aspx?c_id=5&type=top&id=12495,,2016-04-30 03:09:30 +0900,藤田
花園地域コミュニティセンター,（開設中）花園地域コミュニティセンター,32.8256042,130.6881651,,熊本県 熊本市西区 花園 7丁目19-5,,不明,（まだ入力されていません）,（まだ入力されていません）,（まだ入力されていません）,（まだ入力されていません）,（まだ入力されていません）,（まだ入力されていません）,,開設中,,開設中,,,,,http://www.city.kumamoto.jp/hpkiji/pub/detail.aspx?c_id=5&type=top&id=12495,,2016-04-30 03:09:30 +0900,藤田
西部環境工場,（開設中）西部環境工場,32.774152,130.646848,,熊本県 熊本市西区 城山薬師 2丁目12−1,,不明,（まだ入力されていません）,（まだ入力されていません）,（まだ入力されていません）,（まだ入力されていません）,（まだ入力されていません）,（まだ入力されていません）,,開設中,,開設中,,,,,http://www.city.kumamoto.jp/hpkiji/pub/detail.aspx?c_id=5&type=top&id=12495,,2016-04-30 03:09:30 +0900,藤田
熊本県立総合体育館,（開設中）熊本県立総合体育館,32.8142908,130.7017139,,熊本県 熊本市西区 上熊本 1丁目9-28,,不明,（まだ入力されていません）,（まだ入力されていません）,（まだ入力されていません）,（まだ入力されていません）,（まだ入力されていません）,（まだ入力されていません）,,開設中,,開設中,,,,,http://www.city.kumamoto.jp/hpkiji/pub/detail.aspx?c_id=5&type=top&id=12495,,2016-04-30 03:09:30 +0900,藤田
井芹団地集会室,（開設中）井芹団地集会室,32.8160016,130.6947201,,熊本県 熊本市西区 花園 5丁目10,,不明,（まだ入力されていません）,（まだ入力されていません）,（まだ入力されていません）,（まだ入力されていません）,（まだ入力されていません）,（まだ入力されていません）,,開設中,,開設中,,,,,http://www.city.kumamoto.jp/hpkiji/pub/detail.aspx?c_id=5&type=top&id=12495,,2016-04-30 03:09:30 +0900,藤田
文徳高等学校,（開設中）文徳高等学校,32.832311,130.695982,,熊本県 熊本市西区 池田 4丁目22−2,,不明,（まだ入力されていません）,（まだ入力されていません）,（まだ入力されていません）,（まだ入力されていません）,（まだ入力されていません）,（まだ入力されていません）,,開設中,,開設中,,,,,http://www.city.kumamoto.jp/hpkiji/pub/detail.aspx?c_id=5&type=top&id=12495,,2016-04-30 03:09:30 +0900,藤田
熊本県かがやきの森支援学校,（開設中）熊本県かがやきの森支援学校,32.804589,130.685194,,熊本県 熊本市西区 横手 5丁目16-28,,不明,（まだ入力されていません）,（まだ入力されていません）,（まだ入力されていません）,（まだ入力されていません）,（まだ入力されていません）,（まだ入力されていません）,,開設中,,開設中,,,,,http://www.city.kumamoto.jp/hpkiji/pub/detail.aspx?c_id=5&type=top&id=12495,,2016-04-30 03:09:30 +0900,藤田
松尾北小学校,（閉鎖）松尾北小学校,32.812777,130.62502,,熊本県 熊本市西区 松尾町平山 255,,不明,（まだ入力されていません）,（まだ入力されていません）,（まだ入力されていません）,（まだ入力されていません）,（まだ入力されていません）,（まだ入力されていません）,,閉鎖,,閉鎖,,,,,http://www.city.kumamoto.jp/hpkiji/pub/detail.aspx?c_id=5&type=top&id=12495,,2016-04-30 03:09:30 +0900,藤田
松尾東小学校,（閉鎖）松尾東小学校,32.7966558,130.6346889,,熊本県 熊本市西区 上松尾町 2880,,不明,（まだ入力されていません）,（まだ入力されていません）,（まだ入力されていません）,（まだ入力されていません）,（まだ入力されていません）,（まだ入力されていません）,,閉鎖,,閉鎖,,,,,http://www.city.kumamoto.jp/hpkiji/pub/detail.aspx?c_id=5&type=top&id=12495,,2016-04-30 03:09:30 +0900,藤田
芳野中学校,（閉鎖）芳野中学校,32.8410988,130.6408383,,熊本県 熊本市西区 河内町野出 1420-46,,不明,（まだ入力されていません）,（まだ入力されていません）,（まだ入力されていません）,（まだ入力されていません）,（まだ入力されていません）,（まだ入力されていません）,,閉鎖,,閉鎖,,,,,http://www.city.kumamoto.jp/hpkiji/pub/detail.aspx?c_id=5&type=top&id=12495,,2016-04-30 03:09:30 +0900,藤田
芳野地域コミュニティセンター,（閉鎖）芳野地域コミュニティセンター,32.843344,130.64309,,熊本県 熊本市西区 河内町野出 1410−51,,不明,（まだ入力されていません）,（まだ入力されていません）,（まだ入力されていません）,（まだ入力されていません）,（まだ入力されていません）,（まだ入力されていません）,,閉鎖,,閉鎖,,,,,http://www.city.kumamoto.jp/hpkiji/pub/detail.aspx?c_id=5&type=top&id=12495,,2016-04-30 03:09:30 +0900,藤田
河内小学校,（閉鎖）河内小学校,32.828369,130.591485,,熊本県 熊本市西区 河内町船津 2505−2,,不明,（まだ入力されていません）,（まだ入力されていません）,（まだ入力されていません）,（まだ入力されていません）,（まだ入力されていません）,（まだ入力されていません）,,閉鎖,,閉鎖,,,,,http://www.city.kumamoto.jp/hpkiji/pub/detail.aspx?c_id=5&type=top&id=12495,,2016-04-30 03:09:30 +0900,藤田
西区役所（新館）,（閉鎖）西区役所（新館）,32.776334,130.647575,,熊本県 熊本市西区 小島 2丁目7-1,,不明,（まだ入力されていません）,（まだ入力されていません）,（まだ入力されていません）,（まだ入力されていません）,（まだ入力されていません）,（まだ入力されていません）,,閉鎖,,閉鎖,,,,,http://www.city.kumamoto.jp/hpkiji/pub/detail.aspx?c_id=5&type=top&id=12495,,2016-04-30 03:09:30 +0900,藤田
八島団地集会所,（閉鎖）八島団地集会所,32.780186,130.679862,,熊本県 熊本市西区 八島 2丁目8-7,,不明,（まだ入力されていません）,（まだ入力されていません）,（まだ入力されていません）,（まだ入力されていません）,（まだ入力されていません）,（まだ入力されていません）,,閉鎖,,閉鎖,,,,,http://www.city.kumamoto.jp/hpkiji/pub/detail.aspx?c_id=5&type=top&id=12495,,2016-04-30 03:09:30 +0900,藤田
花園公民館,（閉鎖）花園公民館,32.8175774,130.6948615,,熊本県 熊本市西区 花園 5丁目8-3,,不明,（まだ入力されていません）,（まだ入力されていません）,（まだ入力されていません）,（まだ入力されていません）,（まだ入力されていません）,（まだ入力されていません）,,閉鎖,,閉鎖,,,,,http://www.city.kumamoto.jp/hpkiji/pub/detail.aspx?c_id=5&type=top&id=12495,,2016-04-30 03:09:30 +0900,藤田
城山コミュニティセンター,（閉鎖）城山コミュニティセンター,32.7819406,130.6592045,,熊本県 熊本市西区 上代 9丁目6-35,,不明,（まだ入力されていません）,（まだ入力されていません）,（まだ入力されていません）,（まだ入力されていません）,（まだ入力されていません）,（まだ入力されていません）,,閉鎖,,閉鎖,,,,,http://www.city.kumamoto.jp/hpkiji/pub/detail.aspx?c_id=5&type=top&id=12495,,2016-04-30 03:09:30 +0900,藤田
城西コミュニティセンター,（閉鎖）城西コミュニティセンター,32.8082799,130.6906954,,熊本県 熊本市西区 島崎 2丁目21-3,,不明,（まだ入力されていません）,（まだ入力されていません）,（まだ入力されていません）,（まだ入力されていません）,（まだ入力されていません）,（まだ入力されていません）,,閉鎖,,閉鎖,,,,,http://www.city.kumamoto.jp/hpkiji/pub/detail.aspx?c_id=5&type=top&id=12495,,2016-04-30 03:09:30 +0900,藤田
池田コミュニティセンター,（閉鎖）池田コミュニティセンター,32.824076,130.7009362,,熊本県 熊本市西区 上熊本 3丁目15-55,,不明,（まだ入力されていません）,（まだ入力されていません）,（まだ入力されていません）,（まだ入力されていません）,（まだ入力されていません）,（まだ入力されていません）,,閉鎖,,閉鎖,,,,,http://www.city.kumamoto.jp/hpkiji/pub/detail.aspx?c_id=5&type=top&id=12495,,2016-04-30 03:09:30 +0900,藤田
河内中学校,（閉鎖）河内中学校,32.8284215,130.5905757,,熊本県 熊本市西区 河内町船津 2470-1,,不明,（まだ入力されていません）,（まだ入力されていません）,（まだ入力されていません）,（まだ入力されていません）,（まだ入力されていません）,（まだ入力されていません）,,閉鎖,,閉鎖,,,,,http://www.city.kumamoto.jp/hpkiji/pub/detail.aspx?c_id=5&type=top&id=12495,,2016-04-30 03:09:30 +0900,藤田
飽田中学校,（開設中）飽田中学校,32.7601175,130.6536528,,熊本県 熊本市南区 孫代町 72,,不明,（まだ入力されていません）,（まだ入力されていません）,（まだ入力されていません）,（まだ入力されていません）,（まだ入力されていません）,（まだ入力されていません）,,開設中,,開設中,,,,,http://www.city.kumamoto.jp/hpkiji/pub/detail.aspx?c_id=5&type=top&id=12495,,2016-04-30 03:09:30 +0900,藤田
飽田東小学校,（開設中）飽田東小学校,32.7631423,130.6621159,,熊本県 熊本市南区 砂原町 115,,不明,（まだ入力されていません）,（まだ入力されていません）,（まだ入力されていません）,（まだ入力されていません）,（まだ入力されていません）,（まだ入力されていません）,,開設中,,開設中,,,,,http://www.city.kumamoto.jp/hpkiji/pub/detail.aspx?c_id=5&type=top&id=12495,,2016-04-30 03:09:30 +0900,藤田
飽田西小学校,（開設中）飽田西小学校,32.7546346,130.6339315,,熊本県 熊本市南区 並建町 1005,,不明,（まだ入力されていません）,（まだ入力されていません）,（まだ入力されていません）,（まだ入力されていません）,（まだ入力されていません）,（まだ入力されていません）,,開設中,,開設中,,,,,http://www.city.kumamoto.jp/hpkiji/pub/detail.aspx?c_id=5&type=top&id=12495,,2016-04-30 03:09:30 +0900,藤田
飽田公民館,（開設中）飽田公民館,32.7544067,130.6536407,,熊本県 熊本市南区 会富町 1333-1,,不明,（まだ入力されていません）,（まだ入力されていません）,（まだ入力されていません）,（まだ入力されていません）,（まだ入力されていません）,（まだ入力されていません）,,開設中,,開設中,,,,,http://www.city.kumamoto.jp/hpkiji/pub/detail.aspx?c_id=5&type=top&id=12495,,2016-04-30 03:09:30 +0900,藤田
天明中学校（天明体育館）,（開設中）天明中学校（天明体育館）,32.7344109,130.6362046,,熊本県 熊本市南区 奥古閑町 2146-1,,不明,（まだ入力されていません）,（まだ入力されていません）,（まだ入力されていません）,（まだ入力されていません）,（まだ入力されていません）,（まだ入力されていません）,,開設中,,開設中,,,,,http://www.city.kumamoto.jp/hpkiji/pub/detail.aspx?c_id=5&type=top&id=12495,,2016-04-30 03:09:30 +0900,藤田
奥古閑小学校,（開設中）奥古閑小学校,32.7305776,130.6246221,,熊本県 熊本市南区 奥古閑町 4072,,不明,（まだ入力されていません）,（まだ入力されていません）,（まだ入力されていません）,（まだ入力されていません）,（まだ入力されていません）,（まだ入力されていません）,,開設中,,開設中,,,,,http://www.city.kumamoto.jp/hpkiji/pub/detail.aspx?c_id=5&type=top&id=12495,,2016-04-30 03:09:30 +0900,藤田
中緑小学校,（開設中）中緑小学校,32.7308256,130.6602309,,熊本県 熊本市南区 美登里町 800,,不明,（まだ入力されていません）,（まだ入力されていません）,（まだ入力されていません）,（まだ入力されていません）,（まだ入力されていません）,（まだ入力されていません）,,開設中,,開設中,,,,,http://www.city.kumamoto.jp/hpkiji/pub/detail.aspx?c_id=5&type=top&id=12495,,2016-04-30 03:09:30 +0900,藤田
銭塘小学校,（開設中）銭塘小学校,32.7416828,130.6457621,,熊本県 熊本市南区 銭塘町 990,,不明,（まだ入力されていません）,（まだ入力されていません）,（まだ入力されていません）,（まだ入力されていません）,（まだ入力されていません）,（まだ入力されていません）,,開設中,,開設中,,,,,http://www.city.kumamoto.jp/hpkiji/pub/detail.aspx?c_id=5&type=top&id=12495,,2016-04-30 03:09:30 +0900,藤田
天明公民館,（開設中）天明公民館,32.7329175,130.6366682,,熊本県 熊本市南区 奥古閑町 2035,,不明,（まだ入力されていません）,（まだ入力されていません）,（まだ入力されていません）,（まだ入力されていません）,（まだ入力されていません）,（まだ入力されていません）,,開設中,,開設中,,,,,http://www.city.kumamoto.jp/hpkiji/pub/detail.aspx?c_id=5&type=top&id=12495,,2016-04-30 03:09:30 +0900,藤田
力合中学校,（開設中）力合中学校,32.7619674,130.6778395,,熊本県 熊本市南区 島町 5丁目8-1,,不明,（まだ入力されていません）,（まだ入力されていません）,（まだ入力されていません）,（まだ入力されていません）,（まだ入力されていません）,（まだ入力されていません）,,開設中,,開設中,,,,,http://www.city.kumamoto.jp/hpkiji/pub/detail.aspx?c_id=5&type=top&id=12495,,2016-04-30 03:09:30 +0900,藤田
日吉中学校,（開設中）日吉中学校,32.7641147,130.6991264,,熊本県 熊本市南区 近見 5-5-1,,不明,（まだ入力されていません）,（まだ入力されていません）,（まだ入力されていません）,（まだ入力されていません）,（まだ入力されていません）,（まだ入力されていません）,,開設中,,開設中,,,,,http://www.city.kumamoto.jp/hpkiji/pub/detail.aspx?c_id=5&type=top&id=12495,,2016-04-30 03:09:30 +0900,藤田
川尻城南中学校,（開設中）川尻城南中学校,32.7442851,130.6875311,,熊本県 熊本市南区 八幡 8丁目1-1,,不明,（まだ入力されていません）,（まだ入力されていません）,（まだ入力されていません）,（まだ入力されていません）,（まだ入力されていません）,（まだ入力されていません）,,開設中,,開設中,,,,,http://www.city.kumamoto.jp/hpkiji/pub/detail.aspx?c_id=5&type=top&id=12495,,2016-04-30 03:09:30 +0900,藤田
川尻小学校,（開設中）川尻小学校,32.7398211,130.6818246,,熊本県 熊本市南区 川尻 4丁目1-1,,不明,（まだ入力されていません）,（まだ入力されていません）,（まだ入力されていません）,（まだ入力されていません）,（まだ入力されていません）,（まだ入力されていません）,,開設中,,開設中,,,,,http://www.city.kumamoto.jp/hpkiji/pub/detail.aspx?c_id=5&type=top&id=12495,,2016-04-30 03:09:30 +0900,藤田
城南小学校,（開設中）城南小学校,32.7514671,130.6911766,,熊本県 熊本市南区 南高江 4丁目2-70,,不明,（まだ入力されていません）,（まだ入力されていません）,（まだ入力されていません）,（まだ入力されていません）,（まだ入力されていません）,（まだ入力されていません）,,開設中,,開設中,,,,,http://www.city.kumamoto.jp/hpkiji/pub/detail.aspx?c_id=5&type=top&id=12495,,2016-04-30 03:09:30 +0900,藤田
日吉小学校,（開設中）日吉小学校,32.7669392,130.6897105,,熊本県 熊本市南区 近見 1丁目9-30,,不明,（まだ入力されていません）,（まだ入力されていません）,（まだ入力されていません）,（まだ入力されていません）,（まだ入力されていません）,（まだ入力されていません）,,開設中,,開設中,,,,,http://www.city.kumamoto.jp/hpkiji/pub/detail.aspx?c_id=5&type=top&id=12495,,2016-04-30 03:09:30 +0900,藤田
日吉東小学校,（開設中）日吉東小学校,32.7652896,130.6979793,,熊本県 熊本市南区 近見 5丁目1-1,,不明,（まだ入力されていません）,（まだ入力されていません）,（まだ入力されていません）,（まだ入力されていません）,（まだ入力されていません）,（まだ入力されていません）,,開設中,,開設中,,,,,http://www.city.kumamoto.jp/hpkiji/pub/detail.aspx?c_id=5&type=top&id=12495,,2016-04-30 03:09:30 +0900,藤田
力合小学校,（開設中）力合小学校,32.7586788,130.6812809,,熊本県 熊本市南区 刈草 2丁目10-1,,不明,（まだ入力されていません）,（まだ入力されていません）,（まだ入力されていません）,（まだ入力されていません）,（まだ入力されていません）,（まだ入力されていません）,,開設中,,開設中,,,,,http://www.city.kumamoto.jp/hpkiji/pub/detail.aspx?c_id=5&type=top&id=12495,,2016-04-30 03:09:30 +0900,藤田
南部公民館,（開設中）南部公民館,32.7484186,130.6862447,,熊本県 熊本市南区 南高江 6丁目7-35,,不明,（まだ入力されていません）,（まだ入力されていません）,（まだ入力されていません）,（まだ入力されていません）,（まだ入力されていません）,（まだ入力されていません）,,開設中,,開設中,,,,,http://www.city.kumamoto.jp/hpkiji/pub/detail.aspx?c_id=5&type=top&id=12495,,2016-04-30 03:09:30 +0900,藤田
御幸小学校,（開設中）御幸小学校,32.7543161,130.7161367,,熊本県 熊本市南区 御幸笛田 7丁目16-1,,不明,（まだ入力されていません）,（まだ入力されていません）,（まだ入力されていません）,（まだ入力されていません）,（まだ入力されていません）,（まだ入力されていません）,,開設中,,開設中,,,,,http://www.city.kumamoto.jp/hpkiji/pub/detail.aspx?c_id=5&type=top&id=12495,,2016-04-30 03:09:30 +0900,藤田
田迎小学校,（開設中）田迎小学校,32.767956,130.7203126,,熊本県 熊本市南区 出仲間 8丁目3-30,,不明,（まだ入力されていません）,（まだ入力されていません）,（まだ入力されていません）,（まだ入力されていません）,（まだ入力されていません）,（まだ入力されていません）,,開設中,,開設中,,,,,http://www.city.kumamoto.jp/hpkiji/pub/detail.aspx?c_id=5&type=top&id=12495,,2016-04-30 03:09:30 +0900,藤田
田迎西小学校,（開設中）田迎西小学校,32.7741473,130.7054422,,熊本県 熊本市南区 馬渡 2丁目5-1,,不明,（まだ入力されていません）,（まだ入力されていません）,（まだ入力されていません）,（まだ入力されていません）,（まだ入力されていません）,（まだ入力されていません）,,開設中,,開設中,,,,,http://www.city.kumamoto.jp/hpkiji/pub/detail.aspx?c_id=5&type=top&id=12495,,2016-04-30 03:09:30 +0900,藤田
田迎南小学校,（開設中）田迎南小学校,32.7630044,130.7239217,,熊本県 熊本市南区 田井島 3丁目12-1,,不明,（まだ入力されていません）,（まだ入力されていません）,（まだ入力されていません）,（まだ入力されていません）,（まだ入力されていません）,（まだ入力されていません）,,開設中,,開設中,,,,,http://www.city.kumamoto.jp/hpkiji/pub/detail.aspx?c_id=5&type=top&id=12495,,2016-04-30 03:09:30 +0900,藤田
幸田公民館,（開設中）幸田公民館,32.7666821,130.7122527,,熊本県 熊本市南区 幸田 2丁目4-1,,不明,（まだ入力されていません）,（まだ入力されていません）,（まだ入力されていません）,（まだ入力されていません）,（まだ入力されていません）,（まだ入力されていません）,,開設中,,開設中,,,,,http://www.city.kumamoto.jp/hpkiji/pub/detail.aspx?c_id=5&type=top&id=12495,,2016-04-30 03:09:30 +0900,藤田
富合中学校,（開設中）富合中学校,32.7069472,130.6840247,,熊本県 熊本市南区 富合町平原 56,,不明,（まだ入力されていません）,（まだ入力されていません）,（まだ入力されていません）,（まだ入力されていません）,（まだ入力されていません）,（まだ入力されていません）,,開設中,,開設中,,,,,http://www.city.kumamoto.jp/hpkiji/pub/detail.aspx?c_id=5&type=top&id=12495,,2016-04-30 03:09:30 +0900,藤田
富合小学校,（開設中）富合小学校,32.7140521,130.6807495,,熊本県 熊本市南区 富合町清藤 472,,不明,（まだ入力されていません）,（まだ入力されていません）,（まだ入力されていません）,（まだ入力されていません）,（まだ入力されていません）,（まだ入力されていません）,,開設中,,開設中,,,,,http://www.city.kumamoto.jp/hpkiji/pub/detail.aspx?c_id=5&type=top&id=12495,,2016-04-30 03:09:30 +0900,藤田
富合公民館,（開設中）富合公民館,32.7160602,130.677994,,熊本県 熊本市南区 富合町清藤 400,,不明,（まだ入力されていません）,（まだ入力されていません）,（まだ入力されていません）,（まだ入力されていません）,（まだ入力されていません）,（まだ入力されていません）,,開設中,,開設中,,,,,http://www.city.kumamoto.jp/hpkiji/pub/detail.aspx?c_id=5&type=top&id=12495,,2016-04-30 03:09:30 +0900,藤田
下城南中学校,（開設中）下城南中学校,32.7102286,130.7292542,,熊本県 熊本市南区 城南町宮地 1020-1,,不明,（まだ入力されていません）,（まだ入力されていません）,（まだ入力されていません）,（まだ入力されていません）,（まだ入力されていません）,（まだ入力されていません）,,開設中,,開設中,,,,,http://www.city.kumamoto.jp/hpkiji/pub/detail.aspx?c_id=5&type=top&id=12495,,2016-04-30 03:09:30 +0900,藤田
隈庄小学校,（開設中）隈庄小学校,32.7083038,130.7262184,,熊本県 熊本市南区 城南町隈庄 270,,不明,（まだ入力されていません）,（まだ入力されていません）,（まだ入力されていません）,（まだ入力されていません）,（まだ入力されていません）,（まだ入力されていません）,,開設中,,開設中,,,,,http://www.city.kumamoto.jp/hpkiji/pub/detail.aspx?c_id=5&type=top&id=12495,,2016-04-30 03:09:30 +0900,藤田
杉上小学校,（開設中）杉上小学校,32.7242468,130.7275566,,熊本県 熊本市南区 城南町永 505-1,,不明,（まだ入力されていません）,（まだ入力されていません）,（まだ入力されていません）,（まだ入力されていません）,（まだ入力されていません）,（まだ入力されていません）,,開設中,,開設中,,,,,http://www.city.kumamoto.jp/hpkiji/pub/detail.aspx?c_id=5&type=top&id=12495,,2016-04-30 03:09:30 +0900,藤田
豊田小学校,（開設中）豊田小学校,32.6900943,130.7444706,,熊本県 熊本市南区 城南町塚原 264,,不明,（まだ入力されていません）,（まだ入力されていません）,（まだ入力されていません）,（まだ入力されていません）,（まだ入力されていません）,（まだ入力されていません）,,開設中,,開設中,,,,,http://www.city.kumamoto.jp/hpkiji/pub/detail.aspx?c_id=5&type=top&id=12495,,2016-04-30 03:09:30 +0900,藤田
火の君文化センター,（開設中）火の君文化センター,32.7074511,130.7398398,,熊本県 熊本市南区 城南町舞原 394-1,,不明,（まだ入力されていません）,（まだ入力されていません）,（まだ入力されていません）,（まだ入力されていません）,（まだ入力されていません）,（まだ入力されていません）,,開設中,,開設中,,,,,http://www.city.kumamoto.jp/hpkiji/pub/detail.aspx?c_id=5&type=top&id=12495,,2016-04-30 03:09:30 +0900,藤田
城南スポーツセンター,（開設中）城南スポーツセンター,32.7089843,130.7468504,,熊本県 熊本市南区 城南町舞原 274,,不明,（まだ入力されていません）,（まだ入力されていません）,（まだ入力されていません）,（まだ入力されていません）,（まだ入力されていません）,（まだ入力されていません）,,開設中,,開設中,,,,,http://www.city.kumamoto.jp/hpkiji/pub/detail.aspx?c_id=5&type=top&id=12495,,2016-04-30 03:09:30 +0900,藤田
雁回館,（開設中）雁回館,32.715149,130.677995,,熊本県 熊本市南区 富合町清藤 405−1,,不明,（まだ入力されていません）,（まだ入力されていません）,（まだ入力されていません）,（まだ入力されていません）,（まだ入力されていません）,（まだ入力されていません）,,開設中,,開設中,,,,,http://www.city.kumamoto.jp/hpkiji/pub/detail.aspx?c_id=5&type=top&id=12495,,2016-04-30 03:09:30 +0900,藤田
正保公民館,（開設中）正保公民館＜詳細位置不明＞,,,,熊本県 熊本市南区,,不明,（まだ入力されていません）,（まだ入力されていません）,（まだ入力されていません）,（まだ入力されていません）,（まだ入力されていません）,（まだ入力されていません）,,開設中,,開設中,,,,,http://www.city.kumamoto.jp/hpkiji/pub/detail.aspx?c_id=5&type=top&id=12495,詳細位置不明,2016-04-30 03:09:30 +0900,藤田
南部スポーツセンター,（開設中）南部スポーツセンター,32.7553374,130.6735095,,熊本県 熊本市南区 白藤 5丁目2-1,,不明,（まだ入力されていません）,（まだ入力されていません）,（まだ入力されていません）,（まだ入力されていません）,（まだ入力されていません）,（まだ入力されていません）,,開設中,,開設中,,,,,http://www.city.kumamoto.jp/hpkiji/pub/detail.aspx?c_id=5&type=top&id=12495,,2016-04-30 03:09:30 +0900,藤田
田迎浜線健康パーク,（開設中）田迎浜線健康パーク,32.7597408,130.7279827,,熊本県 熊本市南区 良町 4丁目8-1,,不明,（まだ入力されていません）,（まだ入力されていません）,（まだ入力されていません）,（まだ入力されていません）,（まだ入力されていません）,（まだ入力されていません）,,開設中,,開設中,,,,,http://www.city.kumamoto.jp/hpkiji/pub/detail.aspx?c_id=5&type=top&id=12495,,2016-04-30 03:09:30 +0900,藤田
豊田コミュニティセンター,（開設中）豊田コミュニティセンター,32.6940078,130.7348044,,熊本県 熊本市南区 城南町塚原 82-3,,不明,（まだ入力されていません）,（まだ入力されていません）,（まだ入力されていません）,（まだ入力されていません）,（まだ入力されていません）,（まだ入力されていません）,,開設中,,開設中,,,,,http://www.city.kumamoto.jp/hpkiji/pub/detail.aspx?c_id=5&type=top&id=12495,,2016-04-30 03:09:30 +0900,藤田
杉上コミュニティセンター,（開設中）杉上コミュニティセンター,32.727093,130.713223,,熊本県 熊本市南区 城南町高 476−1,,不明,（まだ入力されていません）,（まだ入力されていません）,（まだ入力されていません）,（まだ入力されていません）,（まだ入力されていません）,（まだ入力されていません）,,開設中,,開設中,,,,,http://www.city.kumamoto.jp/hpkiji/pub/detail.aspx?c_id=5&type=top&id=12495,,2016-04-30 03:09:30 +0900,藤田
みゆき園,（開設中）みゆき園,32.758483,130.710427,,熊本県 熊本市南区 御幸笛田 6丁目6−71,,不明,（まだ入力されていません）,（まだ入力されていません）,（まだ入力されていません）,（まだ入力されていません）,（まだ入力されていません）,（まだ入力されていません）,,開設中,,開設中,,,,,http://www.city.kumamoto.jp/hpkiji/pub/detail.aspx?c_id=5&type=top&id=12495,,2016-04-30 03:09:30 +0900,藤田
桜十字病院,（開設中）桜十字病院,32.750347,130.7144898,,熊本県 熊本市南区 御幸木部 1-1-1,,不明,（まだ入力されていません）,（まだ入力されていません）,（まだ入力されていません）,（まだ入力されていません）,（まだ入力されていません）,（まだ入力されていません）,,開設中,,開設中,,,,,http://www.city.kumamoto.jp/hpkiji/pub/detail.aspx?c_id=5&type=top&id=12495,,2016-04-30 03:09:30 +0900,藤田
御幸6町内公民館,（開設中）御幸6町内公民館,32.757959,130.715242,,熊本県 熊本市南区 御幸笛田 5丁目4-20,,不明,（まだ入力されていません）,（まだ入力されていません）,（まだ入力されていません）,（まだ入力されていません）,（まだ入力されていません）,（まだ入力されていません）,,開設中,,開設中,,,,,http://www.city.kumamoto.jp/hpkiji/pub/detail.aspx?c_id=5&type=top&id=12495,,2016-04-30 03:09:30 +0900,藤田
熊本農業高校,（開設中）熊本農業高校,32.74411,130.69487,,熊本県 熊本市南区 元三町 5丁目1,,不明,（まだ入力されていません）,（まだ入力されていません）,（まだ入力されていません）,（まだ入力されていません）,（まだ入力されていません）,（まだ入力されていません）,,開設中,,開設中,,,,,http://www.city.kumamoto.jp/hpkiji/pub/detail.aspx?c_id=5&type=top&id=12495,,2016-04-30 03:09:30 +0900,藤田
大福寺,（開設中）大福寺,32.763859,130.689207,,熊本県 熊本市南区 近見 2丁目7-1,,不明,（まだ入力されていません）,（まだ入力されていません）,（まだ入力されていません）,（まだ入力されていません）,（まだ入力されていません）,（まだ入力されていません）,,開設中,,開設中,,,,,http://www.city.kumamoto.jp/hpkiji/pub/detail.aspx?c_id=5&type=top&id=12495,,2016-04-30 03:09:30 +0900,藤田
野越団地第一集会所,（開設中）野越団地第一集会所,32.754086,130.694011,,熊本県 熊本市南区 南高江 4丁目1,,不明,（まだ入力されていません）,（まだ入力されていません）,（まだ入力されていません）,（まだ入力されていません）,（まだ入力されていません）,（まだ入力されていません）,,開設中,,開設中,,,,,http://www.city.kumamoto.jp/hpkiji/pub/detail.aspx?c_id=5&type=top&id=12495,,2016-04-30 03:09:30 +0900,藤田
日吉コミュニティセンター,（開設中）日吉コミュニティセンター,32.7671947,130.6899632,,熊本県 熊本市南区 近見 1丁目9-20,,不明,（まだ入力されていません）,（まだ入力されていません）,（まだ入力されていません）,（まだ入力されていません）,（まだ入力されていません）,（まだ入力されていません）,,開設中,,開設中,,,,,http://www.city.kumamoto.jp/hpkiji/pub/detail.aspx?c_id=5&type=top&id=12495,,2016-04-30 03:09:30 +0900,藤田
下宮地コミュニティセンター,（開設中）下宮地コミュニティセンター,32.701314,130.731935,,熊本県 熊本市南区 城南町下宮地,,不明,（まだ入力されていません）,（まだ入力されていません）,（まだ入力されていません）,（まだ入力されていません）,（まだ入力されていません）,（まだ入力されていません）,,開設中,,開設中,,,,,http://www.city.kumamoto.jp/hpkiji/pub/detail.aspx?c_id=5&type=top&id=12495,,2016-04-30 03:09:30 +0900,藤田
旭ヶ丘団地,（開設中）旭ヶ丘団地＜詳細位置不明＞,,,,熊本県 熊本市南区,,不明,（まだ入力されていません）,（まだ入力されていません）,（まだ入力されていません）,（まだ入力されていません）,（まだ入力されていません）,（まだ入力されていません）,,開設中,,開設中,,,,,http://www.city.kumamoto.jp/hpkiji/pub/detail.aspx?c_id=5&type=top&id=12495,詳細位置不明,2016-04-30 03:09:30 +0900,藤田
平成2丁目公園,（開設中）平成2丁目公園,32.778913,130.702516,,熊本県 熊本市南区 平成 2丁目7-23,,不明,（まだ入力されていません）,（まだ入力されていません）,（まだ入力されていません）,（まだ入力されていません）,（まだ入力されていません）,（まだ入力されていません）,,開設中,,開設中,,,,,http://www.city.kumamoto.jp/hpkiji/pub/detail.aspx?c_id=5&type=top&id=12495,,2016-04-30 03:09:30 +0900,藤田
日吉団地集会所,（開設中）日吉団地集会所,32.75585,130.683978,,"熊本県 熊本市南区 南高江 1丁目6-36, 37, 38",,不明,（まだ入力されていません）,（まだ入力されていません）,（まだ入力されていません）,（まだ入力されていません）,（まだ入力されていません）,（まだ入力されていません）,,開設中,,開設中,,,,,http://www.city.kumamoto.jp/hpkiji/pub/detail.aspx?c_id=5&type=top&id=12495,,2016-04-30 03:09:30 +0900,藤田
日吉地域コミュニティーセンター,（開設中）日吉地域コミュニティーセンター,32.767176,130.69,,熊本県 熊本市南区 近見 1-9-20,,不明,（まだ入力されていません）,（まだ入力されていません）,（まだ入力されていません）,（まだ入力されていません）,（まだ入力されていません）,出典元には「日吉公民館」と記載,,開設中,,開設中,,,,,http://www.city.kumamoto.jp/hpkiji/pub/detail.aspx?c_id=5&type=top&id=12495,,2016-04-30 03:09:30 +0900,藤田
栗の内団地,（開設中）栗の内団地,32.760976,130.687659,,熊本県 熊本市南区 日吉 1丁目6,,不明,（まだ入力されていません）,（まだ入力されていません）,（まだ入力されていません）,（まだ入力されていません）,（まだ入力されていません）,（まだ入力されていません）,,開設中,,開設中,,,,,http://www.city.kumamoto.jp/hpkiji/pub/detail.aspx?c_id=5&type=top&id=12495,,2016-04-30 03:09:30 +0900,藤田
土鹿野公民館,（開設中）土鹿野公民館＜詳細位置不明＞,,,,熊本県 熊本市南区,,不明,（まだ入力されていません）,（まだ入力されていません）,（まだ入力されていません）,（まだ入力されていません）,（まだ入力されていません）,（まだ入力されていません）,,開設中,,開設中,,,,,http://www.city.kumamoto.jp/hpkiji/pub/detail.aspx?c_id=5&type=top&id=12495,詳細位置不明,2016-04-30 03:09:30 +0900,藤田
飽田南小学校,（閉鎖）飽田南小学校,32.7501462,130.6628412,,熊本県 熊本市南区 護藤町 999,,不明,（まだ入力されていません）,（まだ入力されていません）,（まだ入力されていません）,（まだ入力されていません）,（まだ入力されていません）,（まだ入力されていません）,,閉鎖,,閉鎖,,,,,http://www.city.kumamoto.jp/hpkiji/pub/detail.aspx?c_id=5&type=top&id=12495,,2016-04-30 03:09:30 +0900,藤田
川口小学校,（閉鎖）川口小学校,32.7175204,130.6273917,,熊本県 熊本市南区 川口町 3045,,不明,（まだ入力されていません）,（まだ入力されていません）,（まだ入力されていません）,（まだ入力されていません）,（まだ入力されていません）,（まだ入力されていません）,,閉鎖,,閉鎖,,,,,http://www.city.kumamoto.jp/hpkiji/pub/detail.aspx?c_id=5&type=top&id=12495,,2016-04-30 03:09:30 +0900,藤田
力合西小学校,（閉鎖）力合西小学校,32.7633491,130.6715199,,熊本県 熊本市南区 荒尾 1丁目11-1,,不明,（まだ入力されていません）,（まだ入力されていません）,（まだ入力されていません）,（まだ入力されていません）,（まだ入力されていません）,（まだ入力されていません）,,閉鎖,,閉鎖,,,,,http://www.city.kumamoto.jp/hpkiji/pub/detail.aspx?c_id=5&type=top&id=12495,,2016-04-30 03:09:30 +0900,藤田
託麻中学校,（閉鎖）託麻中学校,32.7724006,130.7168051,,熊本県 熊本市南区 出仲間 6丁目4-1,,不明,（まだ入力されていません）,（まだ入力されていません）,（まだ入力されていません）,（まだ入力されていません）,（まだ入力されていません）,（まだ入力されていません）,,閉鎖,,閉鎖,,,,,http://www.city.kumamoto.jp/hpkiji/pub/detail.aspx?c_id=5&type=top&id=12495,,2016-04-30 03:09:30 +0900,藤田
舞原公民館,（閉鎖）舞原公民館,32.7095953,130.7471392,,熊本県 熊本市南区 城南町舞原 278,,不明,（まだ入力されていません）,（まだ入力されていません）,（まだ入力されていません）,（まだ入力されていません）,（まだ入力されていません）,（まだ入力されていません）,,閉鎖,,閉鎖,,,,,http://www.city.kumamoto.jp/hpkiji/pub/detail.aspx?c_id=5&type=top&id=12495,,2016-04-30 03:09:30 +0900,藤田
御幸笛田野田前公園老人憩の家,（閉鎖）御幸笛田野田前公園老人憩の家,32.760949,130.709191,,熊本県 熊本市南区 御幸笛田 3丁目14-25,,不明,（まだ入力されていません）,（まだ入力されていません）,（まだ入力されていません）,（まだ入力されていません）,（まだ入力されていません）,出典元には「野田前公園老人憩いの家」と記載,,閉鎖,,閉鎖,,,,,http://www.city.kumamoto.jp/hpkiji/pub/detail.aspx?c_id=5&type=top&id=12495,,2016-04-30 03:09:30 +0900,藤田
大町公民館,（閉鎖）大町公民館,32.723223,130.689328,,熊本県 熊本市南区 富合町大町 155,,不明,（まだ入力されていません）,（まだ入力されていません）,（まだ入力されていません）,（まだ入力されていません）,（まだ入力されていません）,（まだ入力されていません）,,閉鎖,,閉鎖,,,,,http://www.city.kumamoto.jp/hpkiji/pub/detail.aspx?c_id=5&type=top&id=12495,,2016-04-30 03:09:30 +0900,藤田
川尻8町内(民生委員）,（閉鎖）川尻8町内(民生委員）＜詳細位置不明＞,,,,熊本県 熊本市南区,,不明,（まだ入力されていません）,（まだ入力されていません）,（まだ入力されていません）,（まだ入力されていません）,（まだ入力されていません）,（まだ入力されていません）,,閉鎖,,閉鎖,,,,,http://www.city.kumamoto.jp/hpkiji/pub/detail.aspx?c_id=5&type=top&id=12495,詳細位置不明,2016-04-30 03:09:30 +0900,藤田
ふくまる道場（阿高）,（閉鎖）ふくまる道場（阿高）＜詳細位置不明＞,,,,熊本県 熊本市南区,,不明,（まだ入力されていません）,（まだ入力されていません）,（まだ入力されていません）,（まだ入力されていません）,（まだ入力されていません）,（まだ入力されていません）,,閉鎖,,閉鎖,,,,,http://www.city.kumamoto.jp/hpkiji/pub/detail.aspx?c_id=5&type=top&id=12495,詳細位置不明,2016-04-30 03:09:30 +0900,藤田
あきた斎場,（閉鎖）あきた斎場,32.762583,130.658488,,熊本県 熊本市南区 砂原町 488-1,,不明,（まだ入力されていません）,（まだ入力されていません）,（まだ入力されていません）,（まだ入力されていません）,（まだ入力されていません）,出典元には「飽田斎場」と記載,,閉鎖,,閉鎖,,,,,http://www.city.kumamoto.jp/hpkiji/pub/detail.aspx?c_id=5&type=top&id=12495,,2016-04-30 03:09:30 +0900,藤田
アクアドーム,（閉鎖）アクアドーム,32.763295,130.6678626,,熊本県 熊本市南区 荒尾 2-1-1,,不明,（まだ入力されていません）,（まだ入力されていません）,（まだ入力されていません）,（まだ入力されていません）,（まだ入力されていません）,（まだ入力されていません）,,閉鎖,,閉鎖,,,,,http://www.city.kumamoto.jp/hpkiji/pub/detail.aspx?c_id=5&type=top&id=12495,,2016-04-30 03:09:30 +0900,藤田
飽田グラウンド,（閉鎖）飽田グラウンド,32.7582161,130.6526495,,熊本県 熊本市南区 浜口町 126,,不明,（まだ入力されていません）,（まだ入力されていません）,（まだ入力されていません）,（まだ入力されていません）,（まだ入力されていません）,（まだ入力されていません）,,閉鎖,,閉鎖,,,,,http://www.city.kumamoto.jp/hpkiji/pub/detail.aspx?c_id=5&type=top&id=12495,,2016-04-30 03:09:30 +0900,藤田
南部在宅福祉センター,（閉鎖）南部在宅福祉センター,32.7608161,130.6857083,,熊本県 熊本市南区 日吉 1丁目4-15,,不明,（まだ入力されていません）,（まだ入力されていません）,（まだ入力されていません）,（まだ入力されていません）,（まだ入力されていません）,（まだ入力されていません）,,閉鎖,,閉鎖,,,,,http://www.city.kumamoto.jp/hpkiji/pub/detail.aspx?c_id=5&type=top&id=12495,,2016-04-30 03:09:30 +0900,藤田
豊田公民館,（閉鎖）豊田公民館,32.6940078,130.7348044,,熊本県 熊本市南区 城南町塚原 82-3,,不明,（まだ入力されていません）,（まだ入力されていません）,（まだ入力されていません）,（まだ入力されていません）,（まだ入力されていません）,（まだ入力されていません）,,閉鎖,,閉鎖,,,,,http://www.city.kumamoto.jp/hpkiji/pub/detail.aspx?c_id=5&type=top&id=12495,,2016-04-30 03:09:30 +0900,藤田
城南総合出張所,（閉鎖）城南総合出張所,32.7089734,130.7288862,,熊本県 熊本市南区 城南町宮地 1050,,不明,（まだ入力されていません）,（まだ入力されていません）,（まだ入力されていません）,（まだ入力されていません）,（まだ入力されていません）,（まだ入力されていません）,,閉鎖,,閉鎖,,,,,http://www.city.kumamoto.jp/hpkiji/pub/detail.aspx?c_id=5&type=top&id=12495,,2016-04-30 03:09:30 +0900,藤田
御幸の里,（閉鎖）御幸の里,32.7590766,130.7107257,,熊本県 熊本市南区 御幸笛田 6丁目7-40,,不明,（まだ入力されていません）,（まだ入力されていません）,（まだ入力されていません）,（まだ入力されていません）,（まだ入力されていません）,（まだ入力されていません）,,閉鎖,,閉鎖,,,,,http://www.city.kumamoto.jp/hpkiji/pub/detail.aspx?c_id=5&type=top&id=12495,,2016-04-30 03:09:30 +0900,藤田
白藤団地集会所,（閉鎖）白藤団地集会所,32.7505309,130.6769697,,熊本県 熊本市南区 白藤 3丁目4-5,,不明,（まだ入力されていません）,（まだ入力されていません）,（まだ入力されていません）,（まだ入力されていません）,（まだ入力されていません）,（まだ入力されていません）,,閉鎖,,閉鎖,,,,,http://www.city.kumamoto.jp/hpkiji/pub/detail.aspx?c_id=5&type=top&id=12495,,2016-04-30 03:09:30 +0900,藤田
植木文化センター,（開設中）植木文化センター,32.9037604,130.6954107,,熊本県 熊本市北区 植木町岩野 238-1,,不明,（まだ入力されていません）,（まだ入力されていません）,（まだ入力されていません）,（まだ入力されていません）,（まだ入力されていません）,（まだ入力されていません）,,開設中,,開設中,,,,,http://www.city.kumamoto.jp/hpkiji/pub/detail.aspx?c_id=5&type=top&id=12495,,2016-04-30 03:09:30 +0900,藤田
五霊中学校,（開設中）五霊中学校,32.905249,130.6903139,,熊本県 熊本市北区 植木町一木 163,,不明,（まだ入力されていません）,（まだ入力されていません）,（まだ入力されていません）,（まだ入力されていません）,（まだ入力されていません）,（まだ入力されていません）,,開設中,,開設中,,,,,http://www.city.kumamoto.jp/hpkiji/pub/detail.aspx?c_id=5&type=top&id=12495,,2016-04-30 03:09:30 +0900,藤田
鹿南中学校,（開設中）鹿南中学校,32.8967497,130.6744372,,熊本県 熊本市北区 植木町滴水 1110,,不明,（まだ入力されていません）,（まだ入力されていません）,（まだ入力されていません）,（まだ入力されていません）,（まだ入力されていません）,（まだ入力されていません）,,開設中,,開設中,,,,,http://www.city.kumamoto.jp/hpkiji/pub/detail.aspx?c_id=5&type=top&id=12495,,2016-04-30 03:09:30 +0900,藤田
吉松小学校,（開設中）吉松小学校,32.9410167,130.7096815,,熊本県 熊本市北区 植木町豊田 474,,不明,（まだ入力されていません）,（まだ入力されていません）,（まだ入力されていません）,（まだ入力されていません）,（まだ入力されていません）,（まだ入力されていません）,,開設中,,開設中,,,,,http://www.city.kumamoto.jp/hpkiji/pub/detail.aspx?c_id=5&type=top&id=12495,,2016-04-30 03:09:30 +0900,藤田
植木小学校,（開設中）植木小学校,32.8964971,130.6933692,,熊本県 熊本市北区 植木町広住 1,,不明,（まだ入力されていません）,（まだ入力されていません）,（まだ入力されていません）,（まだ入力されていません）,（まだ入力されていません）,（まだ入力されていません）,,開設中,,開設中,,,,,http://www.city.kumamoto.jp/hpkiji/pub/detail.aspx?c_id=5&type=top&id=12495,,2016-04-30 03:09:30 +0900,藤田
桜井小学校,（開設中）桜井小学校,32.8887421,130.6843227,,熊本県 熊本市北区 植木町滴水 2255,,不明,（まだ入力されていません）,（まだ入力されていません）,（まだ入力されていません）,（まだ入力されていません）,（まだ入力されていません）,（まだ入力されていません）,,開設中,,開設中,,,,,http://www.city.kumamoto.jp/hpkiji/pub/detail.aspx?c_id=5&type=top&id=12495,,2016-04-30 03:09:30 +0900,藤田
菱形小学校,（開設中）菱形小学校,32.8833612,130.6602618,,熊本県 熊本市北区 植木町円台寺 124,,不明,（まだ入力されていません）,（まだ入力されていません）,（まだ入力されていません）,（まだ入力されていません）,（まだ入力されていません）,（まだ入力されていません）,,開設中,,開設中,,,,,http://www.city.kumamoto.jp/hpkiji/pub/detail.aspx?c_id=5&type=top&id=12495,,2016-04-30 03:09:30 +0900,藤田
山東小学校,（開設中）山東小学校,32.9126074,130.7079179,,熊本県 熊本市北区 植木町有泉 841,,不明,（まだ入力されていません）,（まだ入力されていません）,（まだ入力されていません）,（まだ入力されていません）,（まだ入力されていません）,（まだ入力されていません）,,開設中,,開設中,,,,,http://www.city.kumamoto.jp/hpkiji/pub/detail.aspx?c_id=5&type=top&id=12495,,2016-04-30 03:09:30 +0900,藤田
北部総合出張所,（開設中）北部総合出張所,32.8699172,130.7031022,,熊本県 熊本市北区 鹿子木町 66,,不明,（まだ入力されていません）,（まだ入力されていません）,（まだ入力されていません）,（まだ入力されていません）,（まだ入力されていません）,（まだ入力されていません）,,開設中,,開設中,,,,,http://www.city.kumamoto.jp/hpkiji/pub/detail.aspx?c_id=5&type=top&id=12495,,2016-04-30 03:09:30 +0900,藤田
西里小学校,（開設中）西里小学校,32.8538012,130.7020663,,熊本県 熊本市北区 下硯川町 1784,,不明,（まだ入力されていません）,（まだ入力されていません）,（まだ入力されていません）,（まだ入力されていません）,（まだ入力されていません）,（まだ入力されていません）,,開設中,,開設中,,,,,http://www.city.kumamoto.jp/hpkiji/pub/detail.aspx?c_id=5&type=top&id=12495,,2016-04-30 03:09:30 +0900,藤田
川上小学校,（開設中）川上小学校,32.8701831,130.7045742,,熊本県 熊本市北区 西梶尾町 480,,不明,（まだ入力されていません）,（まだ入力されていません）,（まだ入力されていません）,（まだ入力されていません）,（まだ入力されていません）,（まだ入力されていません）,,開設中,,開設中,,,,,http://www.city.kumamoto.jp/hpkiji/pub/detail.aspx?c_id=5&type=top&id=12495,,2016-04-30 03:09:30 +0900,藤田
清水総合出張所,（開設中）清水総合出張所,32.8413361,130.7216393,,熊本県 熊本市北区 清水亀井町 14-7,,不明,（まだ入力されていません）,（まだ入力されていません）,（まだ入力されていません）,（まだ入力されていません）,（まだ入力されていません）,（まだ入力されていません）,,開設中,,開設中,,,,,http://www.city.kumamoto.jp/hpkiji/pub/detail.aspx?c_id=5&type=top&id=12495,,2016-04-30 03:09:30 +0900,藤田
清水中学校,（開設中）清水中学校,32.8495355,130.7338921,,熊本県 熊本市北区 清水新地 2丁目3-1,,不明,（まだ入力されていません）,（まだ入力されていません）,（まだ入力されていません）,（まだ入力されていません）,（まだ入力されていません）,（まだ入力されていません）,,開設中,,開設中,,,,,http://www.city.kumamoto.jp/hpkiji/pub/detail.aspx?c_id=5&type=top&id=12495,,2016-04-30 03:09:30 +0900,藤田
楡木小学校,（開設中）楡木小学校,32.848144,130.7534969,,熊本県 熊本市北区 楡木 3丁目9-1,,不明,（まだ入力されていません）,（まだ入力されていません）,（まだ入力されていません）,（まだ入力されていません）,（まだ入力されていません）,（まだ入力されていません）,,開設中,,開設中,,,,,http://www.city.kumamoto.jp/hpkiji/pub/detail.aspx?c_id=5&type=top&id=12495,,2016-04-30 03:09:30 +0900,藤田
麻生田小学校,（開設中）麻生田小学校,32.8523158,130.7440249,,熊本県 熊本市北区 麻生田 3丁目9-1,,不明,（まだ入力されていません）,（まだ入力されていません）,（まだ入力されていません）,（まだ入力されていません）,（まだ入力されていません）,（まだ入力されていません）,,開設中,,開設中,,,,,http://www.city.kumamoto.jp/hpkiji/pub/detail.aspx?c_id=5&type=top&id=12495,,2016-04-30 03:09:30 +0900,藤田
高平台小学校,（開設中）高平台小学校,32.8341422,130.7133767,,熊本県 熊本市北区 高平 1丁目17-28,,不明,（まだ入力されていません）,（まだ入力されていません）,（まだ入力されていません）,（まだ入力されていません）,（まだ入力されていません）,（まだ入力されていません）,,開設中,,開設中,,,,,http://www.city.kumamoto.jp/hpkiji/pub/detail.aspx?c_id=5&type=top&id=12495,,2016-04-30 03:09:30 +0900,藤田
城北小学校,（開設中）城北小学校,32.8492244,130.7307561,,熊本県 熊本市北区 清水新地 1丁目4-1,,不明,（まだ入力されていません）,（まだ入力されていません）,（まだ入力されていません）,（まだ入力されていません）,（まだ入力されていません）,（まだ入力されていません）,,開設中,,開設中,,,,,http://www.city.kumamoto.jp/hpkiji/pub/detail.aspx?c_id=5&type=top&id=12495,,2016-04-30 03:09:30 +0900,藤田
清水小学校,（開設中）清水小学校,32.832787,130.7242758,,熊本県 熊本市北区 清水本町 14-58,,不明,（まだ入力されていません）,（まだ入力されていません）,（まだ入力されていません）,（まだ入力されていません）,（まだ入力されていません）,（まだ入力されていません）,,開設中,,開設中,,,,,http://www.city.kumamoto.jp/hpkiji/pub/detail.aspx?c_id=5&type=top&id=12495,,2016-04-30 03:09:30 +0900,藤田
龍田出張所,（開設中）龍田出張所,32.8441927,130.7644342,,熊本県 熊本市北区 龍田弓削 1丁目1-10,,不明,（まだ入力されていません）,（まだ入力されていません）,（まだ入力されていません）,（まだ入力されていません）,（まだ入力されていません）,（まだ入力されていません）,,開設中,,開設中,,,,,http://www.city.kumamoto.jp/hpkiji/pub/detail.aspx?c_id=5&type=top&id=12495,,2016-04-30 03:09:30 +0900,藤田
武蔵中学校,（開設中）武蔵中学校,32.8562041,130.7724671,,熊本県 熊本市北区 武蔵ケ丘 4丁目19-1,,不明,（まだ入力されていません）,（まだ入力されていません）,（まだ入力されていません）,（まだ入力されていません）,（まだ入力されていません）,（まだ入力されていません）,,開設中,,開設中,,,,,http://www.city.kumamoto.jp/hpkiji/pub/detail.aspx?c_id=5&type=top&id=12495,,2016-04-30 03:09:30 +0900,藤田
楠中学校,（開設中）楠中学校,32.8485634,130.7554079,,熊本県 熊本市北区 楠 3丁目2-1,,不明,（まだ入力されていません）,（まだ入力されていません）,（まだ入力されていません）,（まだ入力されていません）,（まだ入力されていません）,（まだ入力されていません）,,開設中,,開設中,,,,,http://www.city.kumamoto.jp/hpkiji/pub/detail.aspx?c_id=5&type=top&id=12495,,2016-04-30 03:09:30 +0900,藤田
龍田中学校,（開設中）龍田中学校,32.8367974,130.760912,,熊本県 熊本市北区 龍田 7丁目8-1,,不明,（まだ入力されていません）,（まだ入力されていません）,（まだ入力されていません）,（まだ入力されていません）,（まだ入力されていません）,（まだ入力されていません）,,開設中,,開設中,,,,,http://www.city.kumamoto.jp/hpkiji/pub/detail.aspx?c_id=5&type=top&id=12495,,2016-04-30 03:09:30 +0900,藤田
龍田小学校,（開設中）龍田小学校,32.8378143,130.7608716,,熊本県 熊本市北区 龍田 7丁目7-1,,不明,（まだ入力されていません）,（まだ入力されていません）,（まだ入力されていません）,（まだ入力されていません）,（まだ入力されていません）,（まだ入力されていません）,,開設中,,開設中,,,,,http://www.city.kumamoto.jp/hpkiji/pub/detail.aspx?c_id=5&type=top&id=12495,,2016-04-30 03:09:30 +0900,藤田
武蔵小学校,（開設中）武蔵小学校,32.8540045,130.7678289,,熊本県 熊本市北区 武蔵ケ丘 3丁目15-1,,不明,（まだ入力されていません）,（まだ入力されていません）,（まだ入力されていません）,（まだ入力されていません）,（まだ入力されていません）,（まだ入力されていません）,,開設中,,開設中,,,,,http://www.city.kumamoto.jp/hpkiji/pub/detail.aspx?c_id=5&type=top&id=12495,,2016-04-30 03:09:30 +0900,藤田
楠小学校,（開設中）楠小学校,32.8513326,130.758427,,熊本県 熊本市北区 楠 5丁目15-1,,不明,（まだ入力されていません）,（まだ入力されていません）,（まだ入力されていません）,（まだ入力されていません）,（まだ入力されていません）,（まだ入力されていません）,,開設中,,開設中,,,,,http://www.city.kumamoto.jp/hpkiji/pub/detail.aspx?c_id=5&type=top&id=12495,,2016-04-30 03:09:30 +0900,藤田
弓削小学校,（開設中）弓削小学校,32.8532518,130.7809221,,熊本県 熊本市北区 龍田町弓削 879-1,,不明,（まだ入力されていません）,（まだ入力されていません）,（まだ入力されていません）,（まだ入力されていません）,（まだ入力されていません）,（まだ入力されていません）,,開設中,,開設中,,,,,http://www.city.kumamoto.jp/hpkiji/pub/detail.aspx?c_id=5&type=top&id=12495,,2016-04-30 03:09:30 +0900,藤田
熊本北高校,（開設中）熊本北高校,32.8413511,130.7482859,,熊本県 熊本市北区 兎谷 3丁目5-1,,不明,（まだ入力されていません）,（まだ入力されていません）,（まだ入力されていません）,（まだ入力されていません）,（まだ入力されていません）,（まだ入力されていません）,,開設中,,開設中,,,,,http://www.city.kumamoto.jp/hpkiji/pub/detail.aspx?c_id=5&type=top&id=12495,,2016-04-30 03:09:30 +0900,藤田
龍田体育館,（開設中）龍田体育館,32.843779,130.764163,,熊本県 熊本市北区 龍田弓削 1丁目1-10,,不明,（まだ入力されていません）,（まだ入力されていません）,（まだ入力されていません）,（まだ入力されていません）,（まだ入力されていません）,（まだ入力されていません）,,開設中,,開設中,,,,,http://www.city.kumamoto.jp/hpkiji/pub/detail.aspx?c_id=5&type=top&id=12495,,2016-04-30 03:09:30 +0900,藤田
北部中学校,（閉鎖）北部中学校,32.8679555,130.7026355,,熊本県 熊本市北区 鹿子木町 1,,不明,（まだ入力されていません）,（まだ入力されていません）,（まだ入力されていません）,（まだ入力されていません）,（まだ入力されていません）,（まだ入力されていません）,,閉鎖,,閉鎖,,,,,http://www.city.kumamoto.jp/hpkiji/pub/detail.aspx?c_id=5&type=top&id=12495,,2016-04-30 03:09:30 +0900,藤田
勤労者青年ホーム,（閉鎖）勤労者青年ホーム,32.8619584,130.7246095,,熊本県 熊本市北区 鶴羽田 2丁目13-10,,不明,（まだ入力されていません）,（まだ入力されていません）,（まだ入力されていません）,（まだ入力されていません）,（まだ入力されていません）,（まだ入力されていません）,,閉鎖,,閉鎖,,,,,http://www.city.kumamoto.jp/hpkiji/pub/detail.aspx?c_id=5&type=top&id=12495,,2016-04-30 03:09:30 +0900,藤田
北区役所,（閉鎖）北区役所,32.9037604,130.6954107,,熊本県 熊本市北区 植木町岩野 238-1,,不明,（まだ入力されていません）,（まだ入力されていません）,（まだ入力されていません）,（まだ入力されていません）,（まだ入力されていません）,（まだ入力されていません）,,閉鎖,,閉鎖,,,,,http://www.city.kumamoto.jp/hpkiji/pub/detail.aspx?c_id=5&type=top&id=12495,,2016-04-30 03:09:30 +0900,藤田
植木北中学校,（閉鎖）植木北中学校,32.9449581,130.7175001,,熊本県 熊本市北区 植木町舟島 455-1,,不明,（まだ入力されていません）,（まだ入力されていません）,（まだ入力されていません）,（まだ入力されていません）,（まだ入力されていません）,（まだ入力されていません）,,閉鎖,,閉鎖,,,,,http://www.city.kumamoto.jp/hpkiji/pub/detail.aspx?c_id=5&type=top&id=12495,,2016-04-30 03:09:30 +0900,藤田
田原小学校,（閉鎖）田原小学校,32.9105096,130.6648516,,熊本県 熊本市北区 植木町富応 1302-5,,不明,（まだ入力されていません）,（まだ入力されていません）,（まだ入力されていません）,（まだ入力されていません）,（まだ入力されていません）,（まだ入力されていません）,,閉鎖,,閉鎖,,,,,http://www.city.kumamoto.jp/hpkiji/pub/detail.aspx?c_id=5&type=top&id=12495,,2016-04-30 03:09:30 +0900,藤田
田底小学校,（閉鎖）田底小学校,32.9627366,130.7171857,,熊本県 熊本市北区 植木町正清 515,,不明,（まだ入力されていません）,（まだ入力されていません）,（まだ入力されていません）,（まだ入力されていません）,（まだ入力されていません）,（まだ入力されていません）,,閉鎖,,閉鎖,,,,,http://www.city.kumamoto.jp/hpkiji/pub/detail.aspx?c_id=5&type=top&id=12495,,2016-04-30 03:09:30 +0900,藤田
山本小学校,（閉鎖）山本小学校,32.9374524,130.6816894,,熊本県 熊本市北区 植木町内 1424,,不明,（まだ入力されていません）,（まだ入力されていません）,（まだ入力されていません）,（まだ入力されていません）,（まだ入力されていません）,（まだ入力されていません）,,閉鎖,,閉鎖,,,,,http://www.city.kumamoto.jp/hpkiji/pub/detail.aspx?c_id=5&type=top&id=12495,,2016-04-30 03:09:30 +0900,藤田
山東コミュニティセンター,（閉鎖）山東コミュニティセンター,32.9133685,130.7087734,,熊本県 熊本市北区 植木町有泉 837-3,,不明,（まだ入力されていません）,（まだ入力されていません）,（まだ入力されていません）,（まだ入力されていません）,（まだ入力されていません）,（まだ入力されていません）,,閉鎖,,閉鎖,,,,,http://www.city.kumamoto.jp/hpkiji/pub/detail.aspx?c_id=5&type=top&id=12495,,2016-04-30 03:09:30 +0900,藤田
大和コミュニティセンター,（閉鎖）大和コミュニティセンター,32.8808678,130.6716182,,熊本県 熊本市北区 植木町大和 70-25,,不明,（まだ入力されていません）,（まだ入力されていません）,（まだ入力されていません）,（まだ入力されていません）,（まだ入力されていません）,（まだ入力されていません）,,閉鎖,,閉鎖,,,,,http://www.city.kumamoto.jp/hpkiji/pub/detail.aspx?c_id=5&type=top&id=12495,,2016-04-30 03:09:30 +0900,藤田
菱形コミュニティセンター,（閉鎖）菱形コミュニティセンター,32.8827504,130.6599446,,熊本県 熊本市北区 植木町円台寺 176,,不明,（まだ入力されていません）,（まだ入力されていません）,（まだ入力されていません）,（まだ入力されていません）,（まだ入力されていません）,（まだ入力されていません）,,閉鎖,,閉鎖,,,,,http://www.city.kumamoto.jp/hpkiji/pub/detail.aspx?c_id=5&type=top&id=12495,,2016-04-30 03:09:30 +0900,藤田
北部グランド,（閉鎖）北部グランド,32.8652279,130.7028216,,熊本県 熊本市北区 下硯川町 416-2,,不明,（まだ入力されていません）,（まだ入力されていません）,（まだ入力されていません）,（まだ入力されていません）,（まだ入力されていません）,（まだ入力されていません）,,閉鎖,,閉鎖,,,,,http://www.city.kumamoto.jp/hpkiji/pub/detail.aspx?c_id=5&type=top&id=12495,,2016-04-30 03:09:30 +0900,藤田
麻生田コミュニティセンター,（閉鎖）麻生田コミュニティセンター,32.8560309,130.7487411,,熊本県 熊本市北区 清水新地 7丁目5-37,,不明,（まだ入力されていません）,（まだ入力されていません）,（まだ入力されていません）,（まだ入力されていません）,（まだ入力されていません）,（まだ入力されていません）,,閉鎖,,閉鎖,,,,,http://www.city.kumamoto.jp/hpkiji/pub/detail.aspx?c_id=5&type=top&id=12495,,2016-04-30 03:09:30 +0900,藤田
機能病院,（閉鎖）機能病院,32.8463218,130.7184151,,熊本県 熊本市北区 山室 6丁目8-1,,不明,（まだ入力されていません）,（まだ入力されていません）,（まだ入力されていません）,（まだ入力されていません）,（まだ入力されていません）,（まだ入力されていません）,,閉鎖,,閉鎖,,,,,http://www.city.kumamoto.jp/hpkiji/pub/detail.aspx?c_id=5&type=top&id=12495,,2016-04-30 03:09:30 +0900,藤田
清水スポーツセンター,（閉鎖）清水スポーツセンター,32.8295743,130.7287674,,熊本県 熊本市北区 清水万石 2丁目3-73,,不明,（まだ入力されていません）,（まだ入力されていません）,（まだ入力されていません）,（まだ入力されていません）,（まだ入力されていません）,（まだ入力されていません）,,閉鎖,,閉鎖,,,,,http://www.city.kumamoto.jp/hpkiji/pub/detail.aspx?c_id=5&type=top&id=12495,,2016-04-30 03:09:30 +0900,藤田
TKUプラザ,（閉鎖）TKUプラザ,32.8395382,130.7078558,,熊本県 熊本市北区 徳王 1-8-1,,不明,（まだ入力されていません）,（まだ入力されていません）,（まだ入力されていません）,（まだ入力されていません）,（まだ入力されていません）,（まだ入力されていません）,,閉鎖,,閉鎖,,,,,http://www.city.kumamoto.jp/hpkiji/pub/detail.aspx?c_id=5&type=top&id=12495,,2016-04-30 03:09:30 +0900,藤田
武蔵塚公園,（閉鎖）武蔵塚公園,32.843536,130.7650405,,熊本県 熊本市北区 龍田弓削,,不明,（まだ入力されていません）,（まだ入力されていません）,（まだ入力されていません）,（まだ入力されていません）,（まだ入力されていません）,（まだ入力されていません）,,閉鎖,,閉鎖,,,,,http://www.city.kumamoto.jp/hpkiji/pub/detail.aspx?c_id=5&type=top&id=12495,,2016-04-30 03:09:30 +0900,藤田
楠中央公園,（閉鎖）楠中央公園,32.847944,130.7566245,,熊本県 熊本市北区 楠 3丁目5,,不明,（まだ入力されていません）,（まだ入力されていません）,（まだ入力されていません）,（まだ入力されていません）,（まだ入力されていません）,（まだ入力されていません）,,閉鎖,,閉鎖,,,,,http://www.city.kumamoto.jp/hpkiji/pub/detail.aspx?c_id=5&type=top&id=12495,,2016-04-30 03:09:30 +0900,藤田
龍田西小学校,（閉鎖）龍田西小学校,32.828068,130.7427058,,熊本県 熊本市北区 龍田陳内 2丁目,,不明,（まだ入力されていません）,（まだ入力されていません）,（まだ入力されていません）,（まだ入力されていません）,（まだ入力されていません）,（まだ入力されていません）,,閉鎖,,閉鎖,,,,,http://www.city.kumamoto.jp/hpkiji/pub/detail.aspx?c_id=5&type=top&id=12495,,2016-04-30 03:09:30 +0900,藤田
武蔵コミュニティセンター,（閉鎖）武蔵コミュニティセンター,32.8543846,130.7715372,,熊本県 熊本市北区 武蔵ケ丘 5丁目15-15,,不明,（まだ入力されていません）,（まだ入力されていません）,（まだ入力されていません）,（まだ入力されていません）,（まだ入力されていません）,（まだ入力されていません）,,閉鎖,,閉鎖,,,,,http://www.city.kumamoto.jp/hpkiji/pub/detail.aspx?c_id=5&type=top&id=12495,,2016-04-30 03:09:30 +0900,藤田
龍田幼稚園,（閉鎖）龍田幼稚園,32.835909,130.758383,,熊本県 熊本市北区 龍田 6丁目12-1,,不明,（まだ入力されていません）,（まだ入力されていません）,（まだ入力されていません）,（まだ入力されていません）,（まだ入力されていません）,（まだ入力されていません）,,閉鎖,,閉鎖,,,,,http://www.city.kumamoto.jp/hpkiji/pub/detail.aspx?c_id=5&type=top&id=12495,,2016-04-30 03:09:30 +0900,藤田
宇土小学校,（開設中）宇土小学校,32.6838489,130.6529301,,熊本県 宇土市 高柳町 104-1,,不明,（まだ入力されていません）,（まだ入力されていません）,（まだ入力されていません）,（まだ入力されていません）,（まだ入力されていません）,（まだ入力されていません）,,開設中,,開設中,,,,,"http://www.city.uto.kumamoto.jp/q/aview/701/13182.html
http://www.city.uto.kumamoto.jp/q/aview/701/13242.html",,2016-04-30 03:09:30 +0900,藤田
宇土東小学校,（開設中）宇土東小学校,32.6950839,130.6612154,,熊本県 宇土市 築籠町 46,,不明,（まだ入力されていません）,（まだ入力されていません）,（まだ入力されていません）,（まだ入力されていません）,（まだ入力されていません）,（まだ入力されていません）,,開設中,,開設中,,,,,"http://www.city.uto.kumamoto.jp/q/aview/701/13182.html
http://www.city.uto.kumamoto.jp/q/aview/701/13242.html",,2016-04-30 03:09:30 +0900,藤田
花園小学校,（開設中）花園小学校,32.6757501,130.6823814,,熊本県 宇土市 古保里町 695,,不明,（まだ入力されていません）,（まだ入力されていません）,（まだ入力されていません）,（まだ入力されていません）,（まだ入力されていません）,（まだ入力されていません）,,開設中,,開設中,,,,,"http://www.city.uto.kumamoto.jp/q/aview/701/13182.html
http://www.city.uto.kumamoto.jp/q/aview/701/13242.html",,2016-04-30 03:09:30 +0900,藤田
走潟小学校,（開設中）走潟小学校,32.7050299,130.6480742,,熊本県 宇土市 走潟町 743,,不明,（まだ入力されていません）,（まだ入力されていません）,（まだ入力されていません）,（まだ入力されていません）,（まだ入力されていません）,（まだ入力されていません）,,開設中,,開設中,,,,,"http://www.city.uto.kumamoto.jp/q/aview/701/13182.html
http://www.city.uto.kumamoto.jp/q/aview/701/13242.html",,2016-04-30 03:09:30 +0900,藤田
緑川小学校,（開設中）緑川小学校,32.6934143,130.6308089,,熊本県 宇土市 野鶴町 246,,不明,（まだ入力されていません）,（まだ入力されていません）,（まだ入力されていません）,（まだ入力されていません）,（まだ入力されていません）,（まだ入力されていません）,,開設中,,開設中,,,,,"http://www.city.uto.kumamoto.jp/q/aview/701/13182.html
http://www.city.uto.kumamoto.jp/q/aview/701/13242.html",,2016-04-30 03:09:30 +0900,藤田
網津小学校,（開設中）網津小学校,32.6964556,130.5995051,,熊本県 宇土市 網津町 2082-3,,不明,（まだ入力されていません）,（まだ入力されていません）,（まだ入力されていません）,（まだ入力されていません）,（まだ入力されていません）,（まだ入力されていません）,,開設中,,開設中,,,,,"http://www.city.uto.kumamoto.jp/q/aview/701/13182.html
http://www.city.uto.kumamoto.jp/q/aview/701/13242.html",,2016-04-30 03:09:30 +0900,藤田
鶴城中学校,（開設中）鶴城中学校,32.6834324,130.6614018,,熊本県 宇土市 新小路町 151,,不明,（まだ入力されていません）,（まだ入力されていません）,（まだ入力されていません）,（まだ入力されていません）,（まだ入力されていません）,（まだ入力されていません）,,開設中,,開設中,,,,,"http://www.city.uto.kumamoto.jp/q/aview/701/13182.html
http://www.city.uto.kumamoto.jp/q/aview/701/13242.html",,2016-04-30 03:09:30 +0900,藤田
花園コミュニティセンター,（開設中）花園コミュニティセンター,32.6764861,130.6810786,,熊本県 宇土市 古保里町,,不明,（まだ入力されていません）,（まだ入力されていません）,（まだ入力されていません）,（まだ入力されていません）,（まだ入力されていません）,（まだ入力されていません）,,開設中,,開設中,,,,,"http://www.city.uto.kumamoto.jp/q/aview/701/13182.html
http://www.city.uto.kumamoto.jp/q/aview/701/13242.html",,2016-04-30 03:09:30 +0900,藤田
轟公民館,（開設中）轟公民館,32.6764968,130.6448419,,熊本県 宇土市 石橋町 10-2,,不明,（まだ入力されていません）,（まだ入力されていません）,（まだ入力されていません）,（まだ入力されていません）,（まだ入力されていません）,（まだ入力されていません）,,開設中,,開設中,,,,,"http://www.city.uto.kumamoto.jp/q/aview/701/13182.html
http://www.city.uto.kumamoto.jp/q/aview/701/13242.html",,2016-04-30 03:09:30 +0900,藤田
保健センター,（開設中）保健センター,32.6798412,130.6624213,,熊本県 宇土市 南段原町 164-3,,不明,（まだ入力されていません）,（まだ入力されていません）,（まだ入力されていません）,（まだ入力されていません）,（まだ入力されていません）,（まだ入力されていません）,,開設中,,開設中,,,,,"http://www.city.uto.kumamoto.jp/q/aview/701/13182.html
http://www.city.uto.kumamoto.jp/q/aview/701/13242.html",,2016-04-30 03:09:30 +0900,藤田
住吉漁協会議室,（開設中）住吉漁協会議室,32.7030494,130.5985414,,熊本県 宇土市 住吉町 875,,不明,（まだ入力されていません）,（まだ入力されていません）,（まだ入力されていません）,（まだ入力されていません）,（まだ入力されていません）,（まだ入力されていません）,,開設中,,開設中,,,,,"http://www.city.uto.kumamoto.jp/q/aview/701/13182.html
http://www.city.uto.kumamoto.jp/q/aview/701/13242.html",,2016-04-30 03:09:30 +0900,藤田
網田小学校,（閉鎖）網田小学校,32.6668183,130.5541783,,熊本県 宇土市 下網田町 1842,,不明,（まだ入力されていません）,（まだ入力されていません）,（まだ入力されていません）,（まだ入力されていません）,（まだ入力されていません）,（まだ入力されていません）,,閉鎖,,閉鎖,,2016-04-26 08:00 +0900,,,"http://www.city.uto.kumamoto.jp/q/aview/701/13182.html
http://www.city.uto.kumamoto.jp/q/aview/701/13242.html
http://www.city.uto.kumamoto.jp/q/aview/701/13249.html",,2016-04-30 03:09:30 +0900,藤田
福祉センター,（閉鎖）福祉センター,32.6875925,130.6587553,,熊本県 宇土市 浦田町 44,,不明,（まだ入力されていません）,（まだ入力されていません）,（まだ入力されていません）,（まだ入力されていません）,（まだ入力されていません）,（まだ入力されていません）,,閉鎖,,閉鎖,,,,,"http://www.city.uto.kumamoto.jp/q/aview/701/13182.html
http://www.city.uto.kumamoto.jp/q/aview/701/13242.html",,2016-04-30 03:09:30 +0900,藤田
住吉中学校,（閉鎖）住吉中学校,32.7003941,130.6102016,,熊本県 宇土市 笹原町 1700,,不明,（まだ入力されていません）,（まだ入力されていません）,（まだ入力されていません）,（まだ入力されていません）,（まだ入力されていません）,（まだ入力されていません）,,閉鎖,,閉鎖,,2016-04-25 07:00 +0900,,,"http://www.city.uto.kumamoto.jp/q/aview/701/13182.html
http://www.city.uto.kumamoto.jp/q/aview/701/13242.html",,2016-04-30 03:09:30 +0900,藤田
網田中学校,（閉鎖）網田中学校,32.6711734,130.5499396,,熊本県 宇土市 下網田町 1120,,不明,（まだ入力されていません）,（まだ入力されていません）,（まだ入力されていません）,（まだ入力されていません）,（まだ入力されていません）,（まだ入力されていません）,,閉鎖,,閉鎖,,,,,"http://www.city.uto.kumamoto.jp/q/aview/701/13182.html
http://www.city.uto.kumamoto.jp/q/aview/701/13242.html",,2016-04-30 03:09:30 +0900,藤田
宇土市民体育館,（閉鎖）宇土市民体育館,32.6842296,130.6644683,,熊本県 宇土市 旭町 504,,不明,（まだ入力されていません）,（まだ入力されていません）,（まだ入力されていません）,（まだ入力されていません）,（まだ入力されていません）,（まだ入力されていません）,,閉鎖,,閉鎖,,,,,"http://www.city.uto.kumamoto.jp/q/aview/701/13182.html
http://www.city.uto.kumamoto.jp/q/aview/701/13242.html",,2016-04-30 03:09:30 +0900,藤田
郡浦市民館,（開設中）郡浦市民館,,,,,,不明,（まだ入力されていません）,（まだ入力されていません）,（まだ入力されていません）,（まだ入力されていません）,（まだ入力されていません）,（まだ入力されていません）,,開設中,,開設中,,,,,http://www.city.uki.kumamoto.jp/q/aview/137/10295.html,,2016-04-30 03:15:00 +0900,藤田
不知火公民館,（開設中）不知火公民館,32.646244,130.6680998,,熊本県 宇城市 不知火町高良 2273-1,,不明,（まだ入力されていません）,（まだ入力されていません）,（まだ入力されていません）,（まだ入力されていません）,（まだ入力されていません）,（まだ入力されていません）,,開設中,,開設中,,,,,http://www.city.uki.kumamoto.jp/q/aview/137/10295.html,,2016-04-30 03:15:00 +0900,藤田
不知火中学校,（開設中）不知火中学校,32.646732,130.656729,,熊本県 宇城市 不知火町長崎 45,,不明,（まだ入力されていません）,（まだ入力されていません）,（まだ入力されていません）,（まだ入力されていません）,（まだ入力されていません）,（まだ入力されていません）,,開設中,,開設中,,,,,http://www.city.uki.kumamoto.jp/q/aview/137/10295.html,,2016-04-30 03:15:00 +0900,藤田
ウイングまつばせ,（開設中）ウイングまつばせ,32.6468832,130.6840654,,熊本県 宇城市 松橋町大野 85,,不明,（まだ入力されていません）,（まだ入力されていません）,（まだ入力されていません）,（まだ入力されていません）,（まだ入力されていません）,（まだ入力されていません）,,開設中,,開設中,,,,,http://www.city.uki.kumamoto.jp/q/aview/137/10295.html,,2016-04-30 03:15:00 +0900,藤田
希望の里サン・アビリティーズ,（開設中）希望の里サン・アビリティーズ,32.642365,130.703025,,熊本県 宇城市 松橋町豊福 1786,,不明,（まだ入力されていません）,（まだ入力されていません）,（まだ入力されていません）,（まだ入力されていません）,（まだ入力されていません）,（まだ入力されていません）,,開設中,,開設中,2016-04-19 18:20 +0900,,,,http://www.city.uki.kumamoto.jp/q/aview/137/10295.html,,2016-04-30 03:15:00 +0900,藤田
当尾小学校,（開設中）当尾小学校,32.6577521,130.7016027,,熊本県 宇城市 松橋町曲野 1856,,不明,（まだ入力されていません）,（まだ入力されていません）,（まだ入力されていません）,（まだ入力されていません）,（まだ入力されていません）,（まだ入力されていません）,,開設中,,開設中,,,,,http://www.city.uki.kumamoto.jp/q/aview/137/10295.html,,2016-04-30 03:15:00 +0900,藤田
宇城市保健福祉センター,（開設中）宇城市保健福祉センター,32.6497162,130.6805072,,熊本県 宇城市 松橋町松橋 396-1,,不明,（まだ入力されていません）,（まだ入力されていません）,（まだ入力されていません）,（まだ入力されていません）,（まだ入力されていません）,（まだ入力されていません）,,開設中,,開設中,,,,,http://www.city.uki.kumamoto.jp/q/aview/137/10295.html,,2016-04-30 03:15:00 +0900,藤田
松橋小学校,（開設中）松橋小学校,32.6572934,130.6851095,,熊本県 宇城市 松橋町松橋 1666,,不明,（まだ入力されていません）,（まだ入力されていません）,（まだ入力されていません）,（まだ入力されていません）,（まだ入力されていません）,（まだ入力されていません）,,開設中,,開設中,,,,,http://www.city.uki.kumamoto.jp/q/aview/137/10295.html,,2016-04-30 03:15:00 +0900,藤田
豊川小学校,（開設中）豊川小学校,32.6244933,130.6791334,,熊本県 宇城市 松橋町南豊崎 582,,不明,（まだ入力されていません）,（まだ入力されていません）,（まだ入力されていません）,（まだ入力されていません）,（まだ入力されていません）,（まだ入力されていません）,,開設中,,開設中,,,,,http://www.city.uki.kumamoto.jp/q/aview/137/10295.html,,2016-04-30 03:15:00 +0900,藤田
ラポート,（開設中）ラポート,32.59315,130.7046583,,熊本県 宇城市 小川町江頭 80,,不明,（まだ入力されていません）,（まだ入力されていません）,（まだ入力されていません）,（まだ入力されていません）,（まだ入力されていません）,（まだ入力されていません）,,開設中,,開設中,,,,,http://www.city.uki.kumamoto.jp/q/aview/137/10295.html,,2016-04-30 03:15:00 +0900,藤田
海東コミュニティーセンター,（開設中）海東コミュニティーセンター,32.5855926,130.7063947,,熊本県 宇城市 小川町小川 43-2,,不明,（まだ入力されていません）,（まだ入力されていません）,（まだ入力されていません）,（まだ入力されていません）,（まだ入力されていません）,（まだ入力されていません）,,開設中,,開設中,,,,,http://www.city.uki.kumamoto.jp/q/aview/137/10295.html,,2016-04-30 03:15:00 +0900,藤田
小野部田小学校,（開設中）小野部田小学校,32.6069156,130.7189369,,熊本県 宇城市 小川町南小野 1402,,不明,（まだ入力されていません）,（まだ入力されていません）,（まだ入力されていません）,（まだ入力されていません）,（まだ入力されていません）,（まだ入力されていません）,,開設中,,開設中,,,,,http://www.city.uki.kumamoto.jp/q/aview/137/10295.html,,2016-04-30 03:15:00 +0900,藤田
河江小学校,（開設中）河江小学校,32.5994488,130.689026,,熊本県 宇城市 小川町新田 1675,,不明,（まだ入力されていません）,（まだ入力されていません）,（まだ入力されていません）,（まだ入力されていません）,（まだ入力されていません）,（まだ入力されていません）,,開設中,,開設中,,,,,http://www.city.uki.kumamoto.jp/q/aview/137/10295.html,,2016-04-30 03:15:00 +0900,藤田
小川小学校,（開設中）小川小学校,32.5818765,130.7107001,,熊本県 宇城市 小川町西北小川 1,,不明,（まだ入力されていません）,（まだ入力されていません）,（まだ入力されていません）,（まだ入力されていません）,（まだ入力されていません）,（まだ入力されていません）,,開設中,,開設中,,,,,http://www.city.uki.kumamoto.jp/q/aview/137/10295.html,,2016-04-30 03:15:00 +0900,藤田
豊野公民館,（開設中）豊野公民館,32.6344271,130.7527145,,熊本県 宇城市 豊野町糸石 2996-1,,不明,（まだ入力されていません）,（まだ入力されていません）,（まだ入力されていません）,（まだ入力されていません）,（まだ入力されていません）,（まだ入力されていません）,,開設中,,開設中,,,,,http://www.city.uki.kumamoto.jp/q/aview/137/10295.html,,2016-04-30 03:15:00 +0900,藤田
豊野小学校,（開設中）豊野小学校,32.6351965,130.750984,,熊本県 宇城市 豊野町糸石 3016,,不明,（まだ入力されていません）,（まだ入力されていません）,（まだ入力されていません）,（まだ入力されていません）,（まだ入力されていません）,（まだ入力されていません）,,開設中,,開設中,,,,,http://www.city.uki.kumamoto.jp/q/aview/137/10295.html,,2016-04-30 03:15:00 +0900,藤田
豊野町コミュニティーセンター,（開設中）豊野町コミュニティーセンター,32.6440322,130.7686352,,熊本県 宇城市 豊野町巣林 309-1,,不明,（まだ入力されていません）,（まだ入力されていません）,（まだ入力されていません）,（まだ入力されていません）,（まだ入力されていません）,（まだ入力されていません）,,開設中,,開設中,,,,,http://www.city.uki.kumamoto.jp/q/aview/137/10295.html,,2016-04-30 03:15:00 +0900,藤田
三角中学校,（閉鎖）三角中学校,32.6184821,130.4940912,,熊本県 宇城市 三角町波多 2946,,不明,（まだ入力されていません）,（まだ入力されていません）,（まだ入力されていません）,（まだ入力されていません）,（まだ入力されていません）,（まだ入力されていません）,,閉鎖,,閉鎖,,2016-04-29 14:00 +0900,,,http://www.city.uki.kumamoto.jp/q/aview/137/10295.html,,2016-04-30 03:15:00 +0900,藤田
青海小学校,（閉鎖）青海小学校,32.6229914,130.5284031,,熊本県 宇城市 三角町郡浦 88,,不明,（まだ入力されていません）,（まだ入力されていません）,（まだ入力されていません）,（まだ入力されていません）,（まだ入力されていません）,（まだ入力されていません）,,閉鎖,,閉鎖,,2016-04-29 14:00 +0900,,,http://www.city.uki.kumamoto.jp/q/aview/137/10295.html,,2016-04-30 03:15:00 +0900,藤田
松合小学校,（閉鎖）松合小学校,32.6335108,130.6044013,,熊本県 宇城市 不知火町松合 1578,,不明,（まだ入力されていません）,（まだ入力されていません）,（まだ入力されていません）,（まだ入力されていません）,（まだ入力されていません）,（まだ入力されていません）,,閉鎖,,閉鎖,,2016-04-28 14:00 +0900,,,http://www.city.uki.kumamoto.jp/q/aview/137/10295.html,,2016-04-30 03:15:00 +0900,藤田
海東小学校,（閉鎖）海東小学校,32.583825,130.744917,,熊本県 宇城市 小川町南海東 2050,,不明,（まだ入力されていません）,（まだ入力されていません）,（まだ入力されていません）,（まだ入力されていません）,（まだ入力されていません）,（まだ入力されていません）,,閉鎖,,閉鎖,2016-04-19 19:40 +0900,2016-04-22 08:00 +0900,,,http://www.city.uki.kumamoto.jp/q/aview/137/10295.html,,2016-04-30 03:15:00 +0900,藤田
宇城市武道館,（閉鎖）宇城市武道館,32.645623,130.668683,,熊本県 宇城市 不知火町高良 2273-1,,不明,（まだ入力されていません）,（まだ入力されていません）,（まだ入力されていません）,（まだ入力されていません）,（まだ入力されていません）,（まだ入力されていません）,,閉鎖,,閉鎖,2016-04-19 19:40 +0900,2016-04-21 16:00 +0900,,,http://www.city.uki.kumamoto.jp/q/aview/137/10295.html,,2016-04-30 03:15:00 +0900,藤田
不知火小学校体育館,（閉鎖）不知火小学校体育館,32.645094,130.6629223,,熊本県 宇城市 不知火町高良 1952,,不明,（まだ入力されていません）,（まだ入力されていません）,（まだ入力されていません）,（まだ入力されていません）,（まだ入力されていません）,（まだ入力されていません）,,閉鎖,,閉鎖,,2016-04-19 18:20 +0900,,,http://www.city.uki.kumamoto.jp/q/aview/137/10295.html,,2016-04-30 03:15:00 +0900,藤田
豊福小学校体育館,（閉鎖）豊福小学校体育館,32.6347542,130.7003593,,熊本県 宇城市 松橋町豊福 1604,,不明,（まだ入力されていません）,（まだ入力されていません）,（まだ入力されていません）,（まだ入力されていません）,（まだ入力されていません）,（まだ入力されていません）,,閉鎖,,閉鎖,,2016-04-19 18:20 +0900,,,http://www.city.uki.kumamoto.jp/q/aview/137/10295.html,,2016-04-30 03:15:00 +0900,藤田
砥用中学校,（開設中）砥用中学校,32.6202456,130.8675658,,熊本県 下益城郡美里町 原町 330,,不明,（まだ入力されていません）,（まだ入力されていません）,（まだ入力されていません）,（まだ入力されていません）,（まだ入力されていません）,（まだ入力されていません）,,開設中,,開設中,,,,,http://www.town.kumamoto-misato.lg.jp/q/aview/997/3621.html,,2016-04-30 03:16:00 +0900,藤田
美里町中央庁舎,（開設中）美里町中央庁舎,32.6179597,130.8650745,,熊本県 下益城郡美里町 1100,,不明,（まだ入力されていません）,（まだ入力されていません）,（まだ入力されていません）,（まだ入力されていません）,（まだ入力されていません）,（まだ入力されていません）,,開設中,,開設中,,,,,http://www.town.kumamoto-misato.lg.jp/q/aview/997/3621.html,,2016-04-30 03:16:00 +0900,藤田
御船町カルチャーセンター,（詳細不明）御船町カルチャーセンター,32.715085,130.8014026,,熊本県 上益城郡御船町 木倉 1168,,不明,（まだ入力されていません）,（まだ入力されていません）,（まだ入力されていません）,（まだ入力されていません）,（まだ入力されていません）,（まだ入力されていません）,,詳細不明,,詳細不明,,,,,http://portal.kumamoto-net.ne.jp/town_mifune/kinkyu/pub/default.asp?c_id=11,,2016-04-30 04:39:10 +0900,藤田 周
御船中学校体育館,（詳細不明）御船中学校体育館,32.7128269,130.8024748,,熊本県 上益城郡御船町 辺田見 55,,不明,（まだ入力されていません）,（まだ入力されていません）,（まだ入力されていません）,（まだ入力されていません）,（まだ入力されていません）,（まだ入力されていません）,,詳細不明,,詳細不明,,,,,http://portal.kumamoto-net.ne.jp/town_mifune/kinkyu/pub/default.asp?c_id=11,,2016-04-30 04:39:10 +0900,藤田 周
七滝中央小学校体育館,（詳細不明）七滝中央小学校体育館,32.734595,130.8538812,,熊本県 上益城郡御船町 上野 1500,,不明,（まだ入力されていません）,（まだ入力されていません）,（まだ入力されていません）,（まだ入力されていません）,（まだ入力されていません）,（まだ入力されていません）,,詳細不明,,詳細不明,,,,,http://portal.kumamoto-net.ne.jp/town_mifune/kinkyu/pub/default.asp?c_id=11,,2016-04-30 04:39:10 +0900,藤田 周
木倉小学校体育館,（詳細不明）木倉小学校体育館,32.7184375,130.8066633,,熊本県 上益城郡御船町 木倉 954,,不明,（まだ入力されていません）,（まだ入力されていません）,（まだ入力されていません）,（まだ入力されていません）,（まだ入力されていません）,（まだ入力されていません）,,詳細不明,,詳細不明,,,,,http://portal.kumamoto-net.ne.jp/town_mifune/kinkyu/pub/default.asp?c_id=11,,2016-04-30 04:39:10 +0900,藤田 周
高木小学校体育館,（詳細不明）高木小学校体育館,32.7379076,130.7915663,,熊本県 上益城郡御船町 高木 1633,,不明,（まだ入力されていません）,（まだ入力されていません）,（まだ入力されていません）,（まだ入力されていません）,（まだ入力されていません）,（まだ入力されていません）,,詳細不明,,詳細不明,,,,,http://portal.kumamoto-net.ne.jp/town_mifune/kinkyu/pub/default.asp?c_id=11,,2016-04-30 04:39:10 +0900,藤田 周
